code,network_region,fueltech,capacity_registered,status,lat,lon,station_name,station_code
APPIN,NSW1,gas_wcmg,55,operating,-34.210868,150.792711,Appin,APPIN
AVLSF1,NSW1,solar_utility,245,operating,-34.9191150502287,146.609539915344,Avonlie,AVLSF
AWABAREF,NSW1,bioenergy_biogas,1,retired,-33.023339,151.551228,Awaba,AWABAREF
BANGOWF2,NSW1,wind,84.8,operating,-34.7672077729328,148.921498707487,Bango,BANGOWF
BANGOWF1,NSW1,wind,244,operating,-34.7672077729328,148.921498707487,Bango,BANGOWF
BANKSPT1,NSW1,distillate,1,retired,-33.919998,151.033742,Bankstown Sports Club,BANKSPT
BW03,NSW1,coal_black,660,operating,-32.3935017885229,150.953963043732,Bayswater,BAYSW
BW01,NSW1,coal_black,660,operating,-32.3935017885229,150.953963043732,Bayswater,BAYSW
BW04,NSW1,coal_black,660,operating,-32.3935017885229,150.953963043732,Bayswater,BAYSW
BW02,NSW1,coal_black,660,operating,-32.3935017885229,150.953963043732,Bayswater,BAYSW
BERYLSF1,NSW1,solar_utility,98,operating,-32.347501,149.460738,Beryl,BERYLSF
GULLRWF2,NSW1,wind,110.67,operating,-34.5878355563273,149.369847873015,Biala,BIALAWF
BLAYNEY,NSW1,wind,9.9,operating,-33.621944,149.198333,Blayney,BLAYNEY
BLOWERNG,NSW1,hydro,80,operating,-35.3974021381011,148.247225084376,Blowering,SNOWY6
SNOWY6,NSW1,hydro,80,retired,-35.3974021381011,148.247225084376,Blowering,SNOWY6
BOCORWF1,NSW1,wind,113,operating,-36.5745267575061,149.124862887286,Boco Rock,BOCOROCK
BODWF1,NSW1,wind,113,operating,-32.407128,149.04133,Bodangora,BODWF
BOMENSF1,NSW1,solar_utility,121,operating,,,Bomen,BOMENSF
BWTR1,NSW1,bioenergy_biogas,38,operating,-29.016483,153.445756,Broadwater,BWTR1
BROKENH1,NSW1,solar_utility,27,operating,-31.988905,141.391547,Broken Hill,BROKENH
GB01,NSW1,distillate,50,operating,-31.9863131909747,141.420620039361,Broken Hill,BHILLGT
BROWNMT,NSW1,hydro,5,operating,-36.594993,149.473997,Brown Mountain,BROWNMT
BDONGHYD,NSW1,hydro,19,operating,-32.664647,149.108016,Burrendong,BDONGHYD
BURRIN,NSW1,hydro,27,operating,-35.0035322191909,148.57989053933,Burrinjuck,BURRIN
CAPTL_WF,NSW1,wind,140,operating,-35.123534200873,149.500248815014,Capital,CAPTL_WF
CESF1,NSW1,solar_utility,1,operating,-35.180684,149.546482,Capital East,CESF
COLEASF1,NSW1,solar_utility,180,operating,-34.759494,145.92984,Coleambally,COLEASF
COLWF01,NSW1,wind,113,operating,-34.8238785633268,149.396795344361,Collector,COLWF01
CG4,NSW1,gas_ocgt,181,operating,-33.2087809607995,151.543540042872,Colongra,COLONGRA
CG2,NSW1,gas_ocgt,181,operating,-33.2087809607995,151.543540042872,Colongra,COLONGRA
CG3,NSW1,gas_ocgt,181,operating,-33.2087809607995,151.543540042872,Colongra,COLONGRA
CG1,NSW1,gas_ocgt,181,operating,-33.2087809607995,151.543540042872,Colongra,COLONGRA
CONDONG1,NSW1,bioenergy_biogas,30,operating,-28.314766,153.433808,Condong,CONDONG1
COPTNHYD,NSW1,hydro,22.5,operating,-29.907544,150.930235,Copeton,COPTNHYD
CRWASF1,NSW1,solar_utility,35.99,committed,-35.9862903364085,146.36145628096,Corowa,CRWASF1
CROOKWEL,NSW1,wind,4.8,operating,-34.5165,149.54248,Crookwell,CROOKWEL
CROOKWF2,NSW1,wind,96,operating,-34.547676,149.589254,Crookwell 2,CROOKWF2
CRURWF1,NSW1,wind,141,operating,-32.8647484102368,149.812970066282,Crudine Ridge,CRURWF1
CULLRGWF,NSW1,wind,30,operating,-34.7509945681949,149.381026799248,Cullerin Range,CULLERIN
DARLSF1,NSW1,solar_utility,324,operating,-34.6448079974092,146.035755540709,Darlington Point,DARLSF
DPNTBL1,NSW1,battery_charging,25,operating,-34.6466683045947,146.034981881909,Darlington Point,DPNTB
DPNTBG1,NSW1,battery_discharging,25,operating,-34.6466683045947,146.034981881909,Darlington Point,DPNTB
PMATTAEP,NSW1,gas_recip,4,retired,-33.824397,151.042142,Earthpower,PMATTAEP
EASTCRK,NSW1,bioenergy_biogas,5,operating,-33.815468,150.854307,Eastern Creek,EASTCRK
EASTCRK2,NSW1,bioenergy_biogas,8.98,operating,-33.815468,150.854307,Eastern Creek 2,EASTCRK2
ER01,NSW1,coal_black,720,operating,-33.0615480516907,151.524612285081,Eraring,ERARING
ER02,NSW1,coal_black,720,operating,-33.0615480516907,151.524612285081,Eraring,ERARING
ER04,NSW1,coal_black,720,operating,-33.0615480516907,151.524612285081,Eraring,ERARING
ER03,NSW1,coal_black,720,operating,-33.0615480516907,151.524612285081,Eraring,ERARING
ERGT01,NSW1,distillate,42,operating,-33.062117,151.517224,Eraring,ERGT01
FINLYSF1,NSW1,solar_utility,162,operating,-35.64421,145.508644,Finley,FINLEYSF
GLBWNHYD,NSW1,hydro,5.5,operating,-32.107937,150.999481,Glenbawn,GLBWNHYD
GLENNCRK,NSW1,gas_wcmg,12,operating,-32.464343,151.130432,Glennies Creek,GLENNCRK
GOONSF1,NSW1,solar_utility,85,operating,,,Goonumbla,GOONUMSF
GRANGEAV,NSW1,bioenergy_biogas,2,operating,-33.713011,150.83316,Grange Avenue,GRANGEAV
GRIFSF1,NSW1,solar_utility,27,operating,-34.317414,146.120739,Griffith,GRIFSF
GULLRWF1,NSW1,wind,165,operating,-34.6245115552508,149.458548623602,Gullen Range,GULLRGWF
GULLRSF1,NSW1,solar_utility,10,operating,-34.6245115552508,149.458548623602,Gullen Range,GULLRGWF
GNNDHSF1,NSW1,solar_utility,144,committed,-30.9654685978931,150.367917284276,Gunnedah,GNNDHSF
GUNNING1,NSW1,wind,47,operating,-34.6763607466059,149.664430179495,Gunning,GUNNING
GUTHEGA,NSW1,hydro,60,operating,-36.3497724824309,148.414030190556,Guthega,SNOWY3
SNOWY3,NSW1,hydro,,retired,-36.3497724824309,148.414030190556,Guthega,SNOWY3
HAMPTON,NSW1,wind,1.32,operating,-33.649722,150.05,Hampton,HAMPTON
HILLSTN1,NSW1,solar_utility,110,committed,-33.5329914722475,145.522278886588,Hillston Sun,HILLSTN
HUMENSW,NSW1,hydro,29,operating,-36.1063825051951,147.032263443678,Hume,HUMENSW
HEZ1,NSW1,distillate,28,operating,-32.835481,151.451033,Hunter Economic Zone,HEZ
HEZ,NSW1,distillate,29,retired,-32.835481,151.451033,Hunter Economic Zone,HEZ
HVGTS,NSW1,distillate,50,operating,-32.3899891907919,150.965962887934,Hunter Valley,HUNTVGT
JACKSGUL,NSW1,bioenergy_biogas,2,operating,-34.072955,150.743691,Jacks Gully,JACKSGUL
JEMALNG1,NSW1,solar_utility,55,operating,-33.3887640031594,147.66937504508,Jemalong,JEMALNG1
JNDABNE1,NSW1,hydro,1,operating,-36.434918,148.63057,Jindabyne,JNDSHPS
JOUNAMA1,NSW1,hydro,14,operating,-35.561274,148.306384,Jounama,JOUNAMA
JUNEESF1,NSW1,solar_utility,30,committed,-34.811240455848,147.572098742069,Junee,JUNEESF
KEEPIT,NSW1,hydro,6,operating,-30.87868,150.491876,Keepit,KEEPIT
AGLSITA1,NSW1,bioenergy_biogas,1,operating,,,Kemps Creek,AGLSITA
KINCUM1,NSW1,bioenergy_biogas,1,operating,-33.477111,151.402603,Kincumber,KINCUMB
KKGTS,NSW1,gas_ccgt,,retired,,,Koolkhan,KOOLKHAN
LD03,NSW1,coal_black,500,retired,-32.3690267892295,150.980112150275,Liddell,LIDDELL
LD04,NSW1,coal_black,500,retired,-32.3690267892295,150.980112150275,Liddell,LIDDELL
LD02,NSW1,coal_black,500,retired,-32.3690267892295,150.980112150275,Liddell,LIDDELL
LD01,NSW1,coal_black,500,retired,-32.3690267892295,150.980112150275,Liddell,LIDDELL
LIMOSF11,NSW1,solar_utility,275,operating,-34.7755018,143.5080463,Limondale,LIMOSF1
LIMOSF21,NSW1,solar_utility,38,operating,-34.7755018,143.5080463,Limondale 2,LIMOSF2
LUCAS2S2,NSW1,bioenergy_biogas,5,operating,-34.044088,150.972475,Lucas Heights 2,LUCAS2S2
LUCASHGT,NSW1,bioenergy_biogas,12.65,retired,,,Lucas Heights 2,LUCASHGT
MANSLR1,NSW1,solar_utility,25,operating,-33.172831,148.71824,Manildra,MANSLR
METZSF1,NSW1,solar_utility,135,operating,,,Metz N,METZSF
MOLNGSF1,NSW1,solar_utility,36,operating,-33.0825777122991,148.900073424537,Molong,MOLNGSF1
MOREESF1,NSW1,solar_utility,57,operating,-29.572607,149.861266,Moree,MOREESF
MP2,NSW1,coal_black,700,operating,-33.3607151085441,150.03569813637,Mt Piper,MP
MP1,NSW1,coal_black,700,operating,-33.3607151085441,150.03569813637,Mt Piper,MP
MLSP1,NSW1,solar_utility,12,operating,-35.398441,149.14906,Mugga Lane,MLSP
MM3,NSW1,coal_black,300,retired,-33.211781,151.542161,Munmorah,MM
MM4,NSW1,coal_black,300,retired,-33.211781,151.542161,Munmorah,MM
NASF1,NSW1,solar_utility,10,operating,-32.218323,148.254523,Narromine,NASF
NEVERSF1,NSW1,solar_utility,132,operating,-31.8310438,147.7051778,Nevertire,NEVERSF
NEWENSF2,NSW1,solar_utility,200,operating,-30.6273226133227,151.556424761441,New England,NEWENSF
NEWENSF1,NSW1,solar_utility,200,operating,-30.6273226133227,151.556424761441,New England,NEWENSF
NGTS,NSW1,gas_ocgt,,retired,,,Northern,NORTHGT
NYNGAN1,NSW1,solar_utility,102,operating,-31.5631913442785,147.074195112039,Nyngan,NYNGAN
PARSF1,NSW1,solar_utility,55,operating,-33.113056,148.076372,Parkes,PSF
PINDARI,NSW1,hydro,6,operating,-29.388034,151.244774,Pindari,PINDARI
QBYNBL1,NSW1,battery_charging,10,operating,-35.339433527214,149.216065330681,Queanbeyan,QBYNB
QBYNBG1,NSW1,battery_discharging,10,operating,-35.339433527214,149.216065330681,Queanbeyan,QBYNB
REDBANK1,NSW1,coal_black,150,retired,-32.58,151.072,Redbank,REDBANK1
RIVNBG2,NSW1,battery_discharging,65,operating,-34.6466683045947,146.034981881909,Riverina Battery,RESS
RIVNBL2,NSW1,battery_charging,65,operating,-34.6466683045947,146.034981881909,Riverina Battery,RESS
RESS1L,NSW1,battery_charging,80,operating,-34.6466683045947,146.034981881909,Riverina Battery,RESS
RESS1G,NSW1,battery_discharging,80,operating,-34.6466683045947,146.034981881909,Riverina Battery,RESS
ROYALLA1,NSW1,solar_utility,20,operating,-35.4860524604201,149.141965695762,Royalla,ROYALLA
SAPHWF1,NSW1,wind,270,operating,-29.710273,151.44558,Sapphire,SAPHWF1
SEBSF1,NSW1,solar_utility,110,committed,-34.6032865766071,147.554757053968,Sebastopol,SEBSF
SHPUMP,NSW1,pumps,240,operating,-34.7330846446504,150.466700105161,Shoalhaven,SHOALHAV
SHGEN,NSW1,hydro,240,operating,-34.7330846446504,150.466700105161,Shoalhaven,SHOALHAV
STWF1,NSW1,wind,198,operating,-31.86095,141.296349,Silverton,STWF
SITHE01,NSW1,gas_ccgt,39,operating,-33.8500226284367,150.950050828532,Smithfield,SITHE
SNOWY4,NSW1,hydro,,retired,,,Snowy,SNOWY4
SNOWY5,NSW1,hydro,,retired,,,Snowy,SNOWY5
SKSF1,NSW1,solar_utility,15,operating,-32.27286,148.649836,South Keswick,SKSF
STGEORG1,NSW1,distillate,1,operating,-33.974819,151.129354,St George Leagues Club,STGEORGE
SUNRSF1,NSW1,solar_utility,228,operating,-34.8214891573718,143.509159979321,Sunraysia,SUNRSF1
SUNTPSF1,NSW1,solar_utility,150,committed,-32.5741998263652,148.860468674682,Suntop,SUNTPSF
TAHMOOR1,NSW1,gas_wcmg,7,operating,-34.249117,150.577718,Tahmoor,TAHMOOR
TALWA1,NSW1,gas_ccgt,440,operating,-34.5230894452804,150.808566045493,Tallawarra,TALLAWAR
TARALGA1,NSW1,wind,106,operating,-34.4253872675598,149.859603200677,Taralga,TARALGA
TERALBA,NSW1,gas_wcmg,3,operating,-32.945557,151.612042,Teralba,TERALBA
THEDROP1,NSW1,hydro,3,operating,-35.973527,145.999274,The Drop,THEDROP
TOWER,NSW1,gas_wcmg,41,operating,-34.219461,150.718012,Tower,TOWER
UPPTUMUT,NSW1,hydro,616,operating,-35.9534920741923,148.369693358993,Tumut,SNOWY2
SNOWY2,NSW1,hydro,616,retired,-35.9534920741923,148.369693358993,Tumut,SNOWY2
TUMUT3,NSW1,hydro,1500,operating,-35.6108171090502,148.29264351449,Tumut 3,TUMUT3
SNOWYP,NSW1,pumps,600,operating,-35.6108171090502,148.29264351449,Tumut 3,TUMUT3
TUMUT3-4,NSW1,hydro,250,retired,-35.6108171090502,148.29264351449,Tumut 3,TUMUT3
TUMUT3-6,NSW1,hydro,250,retired,-35.6108171090502,148.29264351449,Tumut 3,TUMUT3
TUMUT3-5,NSW1,hydro,250,retired,-35.6108171090502,148.29264351449,Tumut 3,TUMUT3
TUMUT3-3,NSW1,hydro,250,retired,-35.6108171090502,148.29264351449,Tumut 3,TUMUT3
TUMUT3-1,NSW1,hydro,250,retired,-35.6108171090502,148.29264351449,Tumut 3,TUMUT3
TUMUT3-2,NSW1,hydro,250,retired,-35.6108171090502,148.29264351449,Tumut 3,TUMUT3
URANQ13,NSW1,gas_ocgt,166,operating,-35.1802256476202,147.21565992714,Uranquinty,URANQ
URANQ14,NSW1,gas_ocgt,166,operating,-35.1802256476202,147.21565992714,Uranquinty,URANQ
URANQ11,NSW1,gas_ocgt,166,operating,-35.1802256476202,147.21565992714,Uranquinty,URANQ
URANQ12,NSW1,gas_ocgt,166,operating,-35.1802256476202,147.21565992714,Uranquinty,URANQ
VP5,NSW1,coal_black,660,operating,-33.164639,151.5441155,Vales Point B,VP
VP6,NSW1,coal_black,660,operating,-33.164639,151.5441155,Vales Point B,VP
WAGGNSF1,NSW1,solar_utility,55,committed,-35.0690811780763,147.438227261186,Wagga North,WAGGNSF
WW7,NSW1,coal_black,500,retired,-33.403889,150.084444,Wallerawang,WW
WW8,NSW1,coal_black,500,retired,-33.403889,150.084444,Wallerawang,WW
WALGRVL1,NSW1,battery_charging,50,operating,-33.8174758189209,150.82727616931,Wallgrove,WALGRV
WALGRVG1,NSW1,battery_discharging,50,operating,-33.8174758189209,150.82727616931,Wallgrove,WALGRV
WG01,NSW1,hydro,50,retired,-33.883064,150.595436,Warragamba,WG
WELLSF1,NSW1,solar_utility,216,operating,,,Wellington,WELLSF1
WESTILL1,NSW1,distillate,1,operating,-34.451645,150.843037,West Illawarra Leagues Club,WESTILLA
AGLNOW1,NSW1,bioenergy_biogas,1,operating,-34.882318,150.551075,West Nowra,AGLNOW1
WSTWYSF1,NSW1,solar_utility,105,operating,-33.7956353638098,147.314544584655,West Wyalong,WSTWYSF
WESTCBT1,NSW1,distillate,1,operating,-34.051073,150.832757,Western Suburbs League Club,WESTCBT
WRSF1,NSW1,solar_utility,22,operating,,,White Rock,WHIROCWIND
WRWF1,NSW1,wind,175,operating,,,White Rock,WHIROCWIND
WILGAPK,NSW1,gas_recip,10,operating,-30.314444,149.652768,Wilga Park,WILGAPK
WILGB01,NSW1,gas_recip,12,operating,-30.314444,149.652768,Wilga Park B,WILGAPKB
NINEWIL1,NSW1,distillate,3,operating,-33.810858,151.196599,Willoughby,NINEWIL
WDLNGN01,NSW1,bioenergy_biogas,7,operating,-35.05928,149.5749,Woodlawn,WDLNGN
WOODLWN1,NSW1,wind,48,operating,-35.0816745987566,149.570510727867,Woodlawn,WOODLWN
WOYWOY1,NSW1,bioenergy_biogas,1,operating,-33.506914,151.291606,Woy Woy,WOYWOY
WYANGALA,NSW1,hydro,20,operating,-33.980371,148.947377,Wyangala A,WYANGALA
WYANGALB,NSW1,hydro,4,operating,-33.980371,148.947377,Wyangala B,WYANGALB
BAKING1,QLD1,solar_utility,17,operating,-26.721166,150.55417,Baking Board,BAKING
BARCALDN,QLD1,gas_ccgt,37,operating,-23.5521705751292,145.314851210101,Barcaldine,BARCALDN
BARCSF1,QLD1,solar_utility,10,operating,-23.547333,145.318972,Barcaldine,BARCSF
BARRON-2,QLD1,hydro,30,operating,-16.8507701285363,145.647049283887,Barron Gorge,BARRON
BARRON-1,QLD1,hydro,30,operating,-16.8507701285363,145.647049283887,Barron Gorge,BARRON
BLUEGSF1,QLD1,solar_utility,183,committed,-26.6917081975343,150.500037191533,Blue Grass,BLUEGSF
BRAEMAR2,QLD1,gas_ocgt,168,operating,-27.111668775911,150.907647496929,Braemar,BRAEMARA
BRAEMAR1,QLD1,gas_ocgt,168,operating,-27.111668775911,150.907647496929,Braemar,BRAEMARA
BRAEMAR3,QLD1,gas_ocgt,168,operating,-27.111668775911,150.907647496929,Braemar,BRAEMARA
BRAEMAR7,QLD1,gas_ocgt,173,operating,-27.1098726737727,150.90765329885,Braemar 2,B2PS
BRAEMAR6,QLD1,gas_ocgt,173,operating,-27.1098726737727,150.90765329885,Braemar 2,B2PS
BRAEMAR5,QLD1,gas_ocgt,173,operating,-27.1098726737727,150.90765329885,Braemar 2,B2PS
BPLANDF1,QLD1,bioenergy_biogas,2,operating,-27.674584,153.068499,Browns Plains,BPLANDF
CALL_A_2,QLD1,coal_black,30,retired,-24.3331687723181,150.626321580678,Callide A,CALL_A
CALL_A_4,QLD1,coal_black,30,retired,-24.3331687723181,150.626321580678,Callide A,CALL_A
CALL_A_1,QLD1,coal_black,,retired,-24.3331687723181,150.626321580678,Callide A,CALL_A
CALL_A_3,QLD1,coal_black,,retired,-24.3331687723181,150.626321580678,Callide A,CALL_A
CALL_B_2,QLD1,coal_black,350,operating,-24.3331687723181,150.626321580678,Callide B,CALL_B
CALL_B_1,QLD1,coal_black,350,operating,-24.3331687723181,150.626321580678,Callide B,CALL_B
CPP_3,QLD1,coal_black,420,operating,-24.347222,150.608611,Callide C,CALLIDEC1
CPP_4,QLD1,coal_black,420,operating,-24.347222,150.608611,Callide C,CALLIDEC1
CHILDSF1,QLD1,solar_utility,64,operating,-25.295027,152.403674,Childers,CHILDSF
CLARESF1,QLD1,solar_utility,110,operating,-19.83977,147.21055,Clare,CLARESF
CLERMSF1,QLD1,solar_utility,92,operating,-22.8394058,147.5460307,Clermont,CLERMSF
COLNSV_1,QLD1,coal_black,30,retired,-20.543333,147.806944,Collinsville,COLNSV
COLNSV_2,QLD1,coal_black,30,retired,-20.543333,147.806944,Collinsville,COLNSV
COLNSV_3,QLD1,coal_black,30,retired,-20.543333,147.806944,Collinsville,COLNSV
COLNSV_4,QLD1,coal_black,30,retired,-20.543333,147.806944,Collinsville,COLNSV
COLNSV_5,QLD1,coal_black,66,retired,-20.543333,147.806944,Collinsville,COLNSV
CSPVPS1,QLD1,solar_utility,42,operating,-20.55714,147.820552,Collinsville,CSPVPS
COLUMSF1,QLD1,solar_utility,50,operating,-26.6360877,150.2822104,Columboola,COLUMSF
CPSA,QLD1,gas_ccgt,143,operating,-26.6666729324806,150.268581153696,Condamine A,CPSA
COOPGWF1,QLD1,wind,452,operating,-26.7170038,151.4491769,Coopers Gap,COOPGWF
DAANDINE,QLD1,gas_recip,33,operating,-27.0862943709476,150.94252770215,Daandine,DAANDINE
DDPS1,QLD1,gas_ccgt,121,operating,-27.1168512752019,150.895391287962,Darling Downs,DDPS1
DDSF1,QLD1,solar_utility,121,operating,-27.112,150.8819,Darling Downs,DDSF
DAYDSF1,QLD1,solar_utility,79,operating,-20.512804,147.691968,Daydream,DAYDSF
DULAWF1,QLD1,wind,180,operating,-26.6374853594802,149.870185877779,Dulacca,DULAWF
EDENVSF1,QLD1,solar_utility,180,operating,-26.9474862494303,150.57849413552,Edenvale,EDENVSF
EMERASF1,QLD1,solar_utility,88,operating,-23.50879,148.128017,Emerald,EMERASF
GANGARR1,QLD1,solar_utility,119.28,operating,-26.254812591286,149.986703836144,Gangarri,GANGARR
GERMCRK,QLD1,gas_wcmg,45,operating,-22.928526,148.549097,German Creek,GERMCRK
GSTONE1,QLD1,coal_black,280,operating,-23.8487410267305,151.220786741037,Gladstone,G/STONE
GSTONE4,QLD1,coal_black,280,operating,-23.8487410267305,151.220786741037,Gladstone,G/STONE
GSTONE6,QLD1,coal_black,280,operating,-23.8487410267305,151.220786741037,Gladstone,G/STONE
GSTONE2,QLD1,coal_black,280,operating,-23.8487410267305,151.220786741037,Gladstone,G/STONE
GSTONE3,QLD1,coal_black,280,operating,-23.8487410267305,151.220786741037,Gladstone,G/STONE
GSTONE5,QLD1,coal_black,280,operating,-23.8487410267305,151.220786741037,Gladstone,G/STONE
GROSV1,QLD1,gas_wcmg,21,operating,,,Grosvenor 1,GROSV1
GROSV2,QLD1,gas_wcmg,15,operating,,,Grosvenor 1,GROSV2
HAMISF1,QLD1,solar_utility,57,operating,-20.468593,147.799484,Hamilton,HAMISF
HAUGHT11,QLD1,solar_utility,132,operating,-19.732168,147.076137,Haughton,HAUGHT1
HAYMSF1,QLD1,solar_utility,57,operating,-20.536162,147.846065,Hayman,HAYMSF
HUGSF1,QLD1,solar_utility,10,committed,-20.854794,144.186048,Hughenden,HUGSF
INVICTA,QLD1,bioenergy_biomass,50,operating,-19.5157903138225,147.106530479438,Invicta Sugar Mill,INVICTA
ICSM,QLD1,bioenergy_biomass,25,operating,-25.197619,152.206949,Isis Central Sugar Mill,ICSM
KRCCOGEN,QLD1,gas_ocgt,5,retired,-27.57359,151.926883,KRC Cogen,KRCCOGEN
KABANWF1,QLD1,wind,156,operating,-17.5606064772005,145.413124953964,Kaban,KABANWF
KAREEYA3,QLD1,hydro,21,operating,-17.7664558224223,145.576884428941,Kareeya,KAREEYA
KAREEYA2,QLD1,hydro,21,operating,-17.7664558224223,145.576884428941,Kareeya,KAREEYA
KAREEYA1,QLD1,hydro,21,operating,-17.7664558224223,145.576884428941,Kareeya,KAREEYA
KAREEYA4,QLD1,hydro,21,operating,-17.7664558224223,145.576884428941,Kareeya,KAREEYA
KAREEYA5,QLD1,hydro,7,operating,-17.7664558224223,145.576884428941,Kareeya,KAREEYA
KEPWF1,QLD1,wind,43.2,operating,-20.872792,144.413034,Kennedy Energy Park,KENNEDY
KEPBG1,QLD1,battery_discharging,2,operating,-20.872792,144.413034,Kennedy Energy Park,KENNEDY
KEPBL1,QLD1,battery_charging,2,operating,-20.872792,144.413034,Kennedy Energy Park,KENNEDY
KEPSF1,QLD1,solar_utility,15,operating,-20.872792,144.413034,Kennedy Energy Park,KENNEDY
KSP1,QLD1,solar_utility,50,operating,-18.88,144.151,Kidston,KSP1
KPP_1,QLD1,coal_black,744,operating,-26.9152849986182,150.748947538925,Kogan Creek,KOGANCK
LILYSF1,QLD1,solar_utility,118,operating,-23.070504,148.413865,Lilyvale,LILYVASF
LRSF1,QLD1,solar_utility,17,operating,-23.455048,144.227917,Longreach,LRSF
MACKAYGT,QLD1,distillate,30,operating,-21.1444407069939,149.159170667386,Mackay,MACKAY
MARYRSF1,QLD1,solar_utility,33,operating,-27.7089727,151.5468693,Maryrorough,MARYRSF
MIDDLSF1,QLD1,solar_utility,30,operating,-22.8222346347412,148.72011549021,Middlemount,MIDDLSF1
MPP_1,QLD1,coal_black,426,operating,-27.9616570077391,151.28090983869,Millmerran,MILLMERN
MPP_2,QLD1,coal_black,426,operating,-27.9616570077391,151.28090983869,Millmerran,MILLMERN
MORANBAH,QLD1,gas_recip,13,operating,-21.962469,148.006004,Moranbah,MORANBAH
MBAHNTH,QLD1,gas_wcmg,63,operating,-21.978481,148.004809,Moranbah North,MBAHNTH
MOUSF1,QLD1,solar_utility,99,operating,-24.5096282600675,150.076647712061,Moura,MOUSF
MEWF1,QLD1,wind,180,operating,-17.133248,145.380037,Mt Emerald,MEWF
MSTUART3,QLD1,distillate,131,operating,-19.3371562032237,146.851238997871,Mt Stuart,MSTUART
MSTUART1,QLD1,distillate,144,operating,-19.3371562032237,146.851238997871,Mt Stuart,MSTUART
MSTUART2,QLD1,distillate,144,operating,-19.3371562032237,146.851238997871,Mt Stuart,MSTUART
OAKEY1,QLD1,gas_ocgt,141,operating,-27.4182072591559,151.678887225743,Oakey,OAKEY
OAKEY2,QLD1,gas_ocgt,141,operating,-27.4182072591559,151.678887225743,Oakey,OAKEY
OAKEY1SF,QLD1,solar_utility,30,operating,-27.402454,151.6425757,Oakey,OAKEY1SF
OAKEY2SF,QLD1,solar_utility,65,operating,-27.402454,151.6425757,Oakey 2,OAKEY2SF
OAKYCREK,QLD1,gas_recip,20,operating,-23.048717,148.484462,Oaky Creek,OCPS
OAKY2,QLD1,gas_wcmg,15,operating,-23.048717,148.484462,Oaky Creek 2,OAKY2
PIONEER,QLD1,bioenergy_biomass,68,operating,-19.557546,147.330825,Pioneer Sugar Mill,PIONEER
RACOMIL1,QLD1,bioenergy_biomass,48.5,operating,-21.163842,149.135738,Racecourse Mill,RACOMIL
ROCHEDAL,QLD1,bioenergy_biogas,4,retired,-27.555798,153.123155,Rochedale,ROCHEDAL
RPCG,QLD1,bioenergy_biomass,30,operating,-27.733564,153.326464,Rocky Point Cogen,RPCG
EDLRGNRD,QLD1,bioenergy_biogas,2,retired,-27.342062,153.049494,Roghan Road,EDLRGNRD
ROMA_7,QLD1,gas_ocgt,40,operating,-26.5767880387556,148.839485013731,Roma,ROMA
ROMA_8,QLD1,gas_ocgt,40,operating,-26.5767880387556,148.839485013731,Roma,ROMA
RRSF1,QLD1,solar_utility,128,operating,-19.425305,146.715686,Ross River,RRSF
RUGBYR1,QLD1,solar_utility,83,operating,-21.940469,147.880877,Rugby Run,RUGBYR
STHBKTEC,QLD1,distillate,1,retired,-27.480589,153.020999,Southbank Institute Of Technology,STHBKTEC
STAN-2,QLD1,coal_black,365,operating,-23.5075011454333,150.317883708605,Stanwell,STANWELL
STAN-3,QLD1,coal_black,365,operating,-23.5075011454333,150.317883708605,Stanwell,STANWELL
STAN-1,QLD1,coal_black,365,operating,-23.5075011454333,150.317883708605,Stanwell,STANWELL
STAN-4,QLD1,coal_black,365,operating,-23.5075011454333,150.317883708605,Stanwell,STANWELL
STAPYLTON1,QLD1,bioenergy_biogas,3,operating,,,Stapylton,STAPYLTON
SMCSF1,QLD1,solar_utility,117,operating,-19.437318,146.696015,Sun Metals,SMCSF
SUNCOAST,QLD1,bioenergy_biomass,1,retired,,,Suncoast Gold Macadamias,SUNCOAST
VALDORA1,QLD1,solar_utility,15,operating,-26.560799,153.025947,Sunshine Coast,VALDORA
SRSF1,QLD1,solar_utility,85,operating,-25.420275,152.742028,Susan River,SRSF
SWAN_A_2,QLD1,gas_ocgt,,retired,-27.6552859093397,152.818643586756,Swanbank B,SWAN_B
SWAN_B_1,QLD1,coal_black,125,retired,-27.6552859093397,152.818643586756,Swanbank B,SWAN_B
SWAN_B_3,QLD1,coal_black,125,retired,-27.6552859093397,152.818643586756,Swanbank B,SWAN_B
SWAN_B_4,QLD1,coal_black,125,retired,-27.6552859093397,152.818643586756,Swanbank B,SWAN_B
MRIDGE,QLD1,gas_ocgt,,retired,-27.6552859093397,152.818643586756,Swanbank B,SWAN_B
SWAN_A_5,QLD1,gas_ocgt,,retired,-27.6552859093397,152.818643586756,Swanbank B,SWAN_B
SWAN_A_6,QLD1,gas_ocgt,,retired,-27.6552859093397,152.818643586756,Swanbank B,SWAN_B
SWAN_C,QLD1,gas_ocgt,,retired,-27.6552859093397,152.818643586756,Swanbank B,SWAN_B
SWAN_A_4,QLD1,gas_ocgt,,retired,-27.6552859093397,152.818643586756,Swanbank B,SWAN_B
SWAN_A_3,QLD1,gas_ocgt,,retired,-27.6552859093397,152.818643586756,Swanbank B,SWAN_B
SWAN_B_2,QLD1,coal_black,125,retired,-27.6552859093397,152.818643586756,Swanbank B,SWAN_B
SWAN_D,QLD1,gas_ocgt,,retired,-27.6552859093397,152.818643586756,Swanbank B,SWAN_B
SWAN_A_1,QLD1,gas_ocgt,,retired,-27.6552859093397,152.818643586756,Swanbank B,SWAN_B
SWAN_E,QLD1,gas_ccgt,385,operating,-27.6552859093397,152.818643586756,Swanbank E,SWAN_E
TABMILL2,QLD1,bioenergy_biomass,24,operating,-17.119813,145.34513,Tableland Mill,TABMILL2
TARONG#2,QLD1,coal_black,350,operating,-26.7743967256886,151.917837634815,Tarong,TARONG
TARONG#1,QLD1,coal_black,350,operating,-26.7743967256886,151.917837634815,Tarong,TARONG
TARONG#3,QLD1,coal_black,350,operating,-26.7743967256886,151.917837634815,Tarong,TARONG
TARONG#4,QLD1,coal_black,350,operating,-26.7743967256886,151.917837634815,Tarong,TARONG
TNPS1,QLD1,coal_black,443,operating,-26.7743967256886,151.917837634815,Tarong North,TARONGN
YABULU2,QLD1,gas_ccgt,82,operating,-19.2003738513919,146.61826474009,Townsville,YABULU
YABULU,QLD1,gas_ccgt,160,operating,-19.2003738513919,146.61826474009,Townsville,YABULU
TITREE,QLD1,bioenergy_biogas,2,operating,-27.695551,152.650313,Veolia Ti Tree,TITREE
VICMILL1,QLD1,bioenergy_biomass,24,operating,-18.650208,146.200866,Victoria Mill,VICMILL
WANDSF1,QLD1,solar_utility,159,operating,-26.2635639677673,149.772243403992,Wandoan Solar Farm,WANDSF
WANDBG1,QLD1,battery_discharging,150,operating,-26.2639862018949,149.772871134393,Wandoan South,WANDBG
WANDBL1,QLD1,battery_charging,150,operating,-26.2639862018949,149.772871134393,Wandoan South,WANDBG
WARWSF1,QLD1,solar_utility,39,committed,-28.18321,152.066792,Warwick,WARWSF1
WARWSF2,QLD1,solar_utility,39,committed,-28.18321,152.066792,Warwick,WARWSF2
WDGPH1,QLD1,solar_utility,500,committed,-26.9279222338794,150.601542383175,Western Downs,WDGPH
WHITSF1,QLD1,solar_utility,57,operating,-20.537259,147.80475,Whitsunday,WHITSF
WHIT1,QLD1,bioenergy_biogas,1,retired,-27.620454,152.824409,Whitwood Road,WHIT1
WHILL1,QLD1,wind,12,operating,-17.590399,145.52968,Windy Hill,WINDHILL
W/HOE#1,QLD1,hydro,285,operating,-27.3722237672267,152.632361726237,Wivenhoe,WIVENHOE
PUMP2,QLD1,pumps,240,operating,-27.3722237672267,152.632361726237,Wivenhoe,WIVENHOE
W/HOE#2,QLD1,hydro,285,operating,-27.3722237672267,152.632361726237,Wivenhoe,WIVENHOE
PUMP1,QLD1,pumps,240,operating,-27.3722237672267,152.632361726237,Wivenhoe,WIVENHOE
WIVENSH,QLD1,hydro,5,operating,-27.394592,152.609237,Wivenhoe,WIVENSH
WOOLGSF1,QLD1,solar_utility,222.5,operating,-26.0845224,152.4412264,Woolooga,WOOLGSF
YARANSF1,QLD1,solar_utility,121,operating,-27.7089394,151.5326965,Yarranlea,YARANSF
YARWUN_1,QLD1,gas_ccgt,154,operating,-23.8302003068757,151.149691648905,Yarwun,YARWUN
ADPBA1L,SA1,battery_charging,6.27,operating,-35.0969482084676,138.484060871984,Adelaide Desalination,ADP
ADPBA1G,SA1,battery_discharging,6.27,operating,-35.0969482084676,138.484060871984,Adelaide Desalination,ADP
AMCORGR,SA1,distillate,4,retired,-34.882663,138.577975,Amcor Glass,AMCORGR
ANGAST1,SA1,distillate,50,operating,-34.5039482864289,139.024296339333,Angaston,ANGASTON
ANGAS1,SA1,distillate,30,operating,-34.5039482864289,139.024296339333,Angaston,ANGASTON
ANGAS2,SA1,distillate,20,operating,-34.5039482864289,139.024296339333,Angaston,ANGASTON
BARKIPS1,SA1,gas_recip,211,operating,-34.804,138.524,Barker Inlet,BARKIPS
BLULAKE1,SA1,distillate,1,retired,-36.316597,140.757571,Blue Lake Milling,BLULAKE
BOWWBA1G,SA1,battery_discharging,3.08,committed,-34.495482,138.387641,Bolivar,BOLIVAR
BOWWBA1L,SA1,battery_charging,3.08,committed,-34.495482,138.387641,Bolivar,BOLIVAR
BOWWPV1,SA1,solar_utility,8.25,committed,-34.495482,138.387641,Bolivar,BOLIVAR
BOLIVAR1,SA1,bioenergy_biogas,10,committed,-34.495482,138.387641,Bolivar,BOLIVAR
BOLIVPS1,SA1,gas_ccgt,128,operating,,,Bolivar,BOLIVPS
BNGSF1,SA1,solar_utility,135,operating,-32.423316,137.841798,Bungala One,BNGSF1
BNGSF2,SA1,solar_utility,135,operating,-32.406993,137.840933,Bungala Two,BNGSF2
CNUNDAWF,SA1,wind,46,operating,-37.6983027777778,140.383633333333,Canunda,CANUNDA1
CATHROCK,SA1,wind,66,operating,-34.8487411412149,135.592648854827,Cathedral Rocks,CATHROCK
CBWWBA1G,SA1,battery_discharging,2.09,committed,-35.1259581226564,138.471350366743,Christies Beach,CBWWBA
CBWWBA1L,SA1,battery_charging,2.09,committed,-35.1259581226564,138.471350366743,Christies Beach,CBWWBA
CBWWPV1,SA1,solar_utility,2.1,committed,-35.1259581226564,138.471350366743,Christies Beach,CBWWBA
CLEMGPWF,SA1,wind,57,operating,-33.4897731866514,138.11169493851,Clements Gap,CLEMGPWF
DALNTH01,SA1,battery_discharging,30,operating,-34.888446,137.758114,Dalrymple North,DALNTH
DALNTHL1,SA1,battery_charging,30,operating,-34.888446,137.758114,Dalrymple North,DALNTH
DRYCGT2,SA1,gas_ocgt,52,operating,-34.8472931778913,138.582297039723,Dry Creek,DRYCGT
DRYCGT1,SA1,gas_ocgt,52,operating,-34.8472931778913,138.582297039723,Dry Creek,DRYCGT
DRYCGT3,SA1,gas_ocgt,52,operating,-34.8472931778913,138.582297039723,Dry Creek,DRYCGT
AGLHAL,SA1,gas_ocgt,217,operating,-33.3493102447996,138.752632826228,Hallett,AGLHAL
HALLWF1,SA1,wind,95,operating,-33.3284341007768,138.704668661635,Hallett 1,HALLWF
HALLWF2,SA1,wind,71,operating,-33.5382102938784,138.857214598585,Hallett 2,HALLWF2
HVWWBA1G,SA1,battery_discharging,5.52,committed,-35.0631178114067,138.564760431125,Happy Valley,HVWW
HVWWBA1L,SA1,battery_charging,5.52,committed,-35.0631178114067,138.564760431125,Happy Valley,HVWW
HVWWPV1,SA1,solar_utility,11,committed,-35.0631178114067,138.564760431125,Happy Valley,HVWW
HIGHBRY1,SA1,bioenergy_biogas,2,retired,,,Highbury,HIGHBRY
HDWF1,SA1,wind,102,operating,-33.05982,138.537673,Hornsdale,HORNSDAL
HDWF2,SA1,wind,102,operating,-33.05982,138.537673,Hornsdale 2,HORNSDAL2
HDWF3,SA1,wind,112,operating,-33.05982,138.537673,Hornsdale 3,HORNSDAL3
HPRG1,SA1,battery_discharging,150,operating,-33.085519,138.521914,Hornsdale Power Reserve,HORNSDPR
HPRL1,SA1,battery_charging,150,operating,-33.085519,138.521914,Hornsdale Power Reserve,HORNSDPR
LADBROK1,SA1,gas_ocgt,40,operating,-37.456183170651,140.782699220365,Ladbroke Grove,LADBROKE
LADBROK2,SA1,gas_ocgt,40,operating,-37.456183170651,140.782699220365,Ladbroke Grove,LADBROKE
LBBG1,SA1,battery_discharging,25,operating,-37.7387871,140.3846721,Lake Bonney,LBBESS
LBBL1,SA1,battery_charging,25,operating,-37.7387871,140.3846721,Lake Bonney,LBBESS
LKBONNY1,SA1,wind,81,operating,-37.7605043836737,140.405541183051,Lake Bonney,LKBONNY1
LKBONNY2,SA1,wind,159,operating,-37.7605043836737,140.405541183051,Lake Bonney 2,LKBONNY_2
LKBONNY3,SA1,wind,39,operating,-37.7605043836737,140.405541183051,Lake Bonney 3,LKBONNY3
LGAPWF1,SA1,wind,212.4,operating,-32.5463326,137.5527629,Lincoln Gap,LGAPWF1
LGAPWF2,SA1,wind,86,operating,-32.5463326,137.5527629,Lincoln Gap,LGAPWF1
LONSDALE,SA1,distillate,21,operating,-35.109718,138.490962,Lonsdale,LONSDALE
MINTARO,SA1,gas_ocgt,90,operating,-33.9031486136929,138.738797175079,Mintaro,MINTARO
MINTNL1,SA1,gas_ocgt,25,operating,-33.9031486136929,138.738797175079,Mintaro,MINTARO
MTMILLAR,SA1,wind,70,operating,-33.6193424956887,136.717568216817,Mt Millar,MTMILLAR
NBHWF1,SA1,wind,132,operating,-33.2281156193048,138.716888373039,North Brown Hill,NBHWF
NPS1,SA1,coal_brown,265,retired,-32.5429,137.7874,Northern,NORTHP
NPS2,SA1,coal_brown,265,retired,-32.5429,137.7874,Northern,NORTHP
NPSNL1,SA1,coal_brown,100,retired,-32.5429,137.7874,Northern,NORTHP
NPSNL2,SA1,coal_brown,100,retired,-32.5429,137.7874,Northern,NORTHP
OSB-AG,SA1,gas_ccgt,180,operating,-34.797699815377,138.508098610511,Osborne,OSBORNE
OSB01,SA1,gas_ccgt,,retired,-34.797699815377,138.508098610511,Osborne,OSBORNE
OSB02,SA1,gas_ccgt,,retired,-34.797699815377,138.508098610511,Osborne,OSBORNE
PEDLER1,SA1,bioenergy_biogas,3,retired,-35.202388,138.501214,Pedler Creek,PEDLER
PPCCGT,SA1,gas_ccgt,478,operating,-34.7643653551286,138.5053993318,Pelican Point,NPPPPS
PLAYFB4,SA1,coal_brown,60,retired,-32.538886,137.781822,Playford B,PLAYF
PLAYFB2,SA1,coal_brown,60,retired,-32.538886,137.781822,Playford B,PLAYF
PLAYFB3,SA1,coal_brown,60,retired,-32.538886,137.781822,Playford B,PLAYF
PLAYB-AG,SA1,coal_brown,240,retired,-32.538886,137.781822,Playford B,PLAYF
PLAYFB1,SA1,coal_brown,60,retired,-32.538886,137.781822,Playford B,PLAYF
PAREPW1,SA1,wind,210,operating,-32.5956088577028,137.885628792044,Port Augusta Energy Park,PAREPW
PAREPS1,SA1,solar_utility,99,operating,-32.5956088577028,137.885628792044,Port Augusta Energy Park,PAREPW
POR01,SA1,distillate,50,operating,-34.7006160123515,135.804530499443,Port Lincoln,PORTLCN
POR03,SA1,distillate,23,operating,-34.7006160123515,135.804530499443,Port Lincoln,PORTLCN
PTSTAN1,SA1,distillate,57.6,operating,-35.110345,138.490872,Port Stanvac,STANVAC
STANV1,SA1,distillate,58,operating,-35.110345,138.490872,Port Stanvac,STANVAC
STANV2,SA1,distillate,58,operating,-35.110345,138.490872,Port Stanvac,STANVAC
QPS2,SA1,gas_ocgt,24,operating,-34.7790736853879,138.522454543776,Quarantine,QUARANTN
QPS1,SA1,gas_ocgt,29,operating,-34.7790736853879,138.522454543776,Quarantine,QUARANTN
QPS3,SA1,gas_ocgt,24,operating,-34.7790736853879,138.522454543776,Quarantine,QUARANTN
QPS5,SA1,gas_ocgt,128,operating,-34.7790736853879,138.522454543776,Quarantine,QUARANTN
QPS4,SA1,gas_ocgt,24,operating,-34.7790736853879,138.522454543776,Quarantine,QUARANTN
SNAPPER1,SA1,gas_ocgt,154,operating,-34.7645199928031,138.508190084126,Snapper Point,SNAPPER
SNOWTWN1,SA1,wind,99,operating,-33.6915984540895,138.166022220101,Snowtown,SNOWTOWN
SNOWNTH1,SA1,wind,144,operating,-33.7564786487724,138.143043187414,Snowtown North,SNOWNTH
SNOWSTH1,SA1,wind,126,operating,-33.862624210288,138.130366531972,Snowtown South,SNOWSTH
SNUG1,SA1,distillate,21,operating,-37.6649956240792,140.41468562441,Snuggery,SNUG
SNUG2,SA1,distillate,21,operating,-37.6649956240792,140.41468562441,Snuggery,SNUG
SNUG3,SA1,distillate,21,operating,-37.6649956240792,140.41468562441,Snuggery,SNUG
SNUGNL1,SA1,distillate,25,operating,-37.6649956240792,140.41468562441,Snuggery,SNUG
STARHLWF,SA1,wind,35,operating,-35.5789829575224,138.139653061517,Starfish Hill,STARFHILL
TBSF1,SA1,solar_utility,108,operating,-35.28,139.49,Tailem Bend,TBSF
TB2SF1,SA1,solar_utility,105,operating,-35.28,139.49,Tailem Bend 2,TB2SF
TB2BG1,SA1,battery_charging,50,operating,-35.28,139.49,Tailem Bend 2,TB2SF
TB2BL1,SA1,battery_discharging,50,operating,-35.28,139.49,Tailem Bend 2,TB2SF
TATIARA1,SA1,distillate,1,operating,-36.326977,140.737035,Tataria,TATIARA
TEATREE1,SA1,bioenergy_biogas,1,retired,,,Tea Tree Gully,TEATREE
SATGN1,SA1,distillate,154,retired,-34.719707,138.668425,Temporary Generation North,SATGN
SATGS1,SA1,distillate,123,retired,-35.096799,138.483997,Temporary Generation South,SATGS
TERMSTOR,SA1,hydro,2,retired,-34.84014,138.712137,Terminal,TERMSTOR
BLUFF1,SA1,wind,52.5,operating,-33.3677405026772,138.79378986166,The Bluff,BLUFF
TORRB1,SA1,gas_steam,200,operating,-34.8045591391219,138.522228698972,Torrens Island,TORRIS
TORRB2,SA1,gas_steam,200,operating,-34.8045591391219,138.522228698972,Torrens Island,TORRIS
TORRB3,SA1,gas_steam,200,operating,-34.8045591391219,138.522228698972,Torrens Island,TORRIS
TORRA1,SA1,gas_steam,120,operating,-34.8045591391219,138.522228698972,Torrens Island,TORRIS
TORRA2,SA1,gas_steam,120,operating,-34.8045591391219,138.522228698972,Torrens Island,TORRIS
TORRA4,SA1,gas_steam,120,operating,-34.8045591391219,138.522228698972,Torrens Island,TORRIS
TORRB4,SA1,gas_steam,200,operating,-34.8045591391219,138.522228698972,Torrens Island,TORRIS
TORRA3,SA1,gas_steam,120,operating,-34.8045591391219,138.522228698972,Torrens Island,TORRIS
TIBL1,SA1,battery_charging,250,operating,-34.8058314103454,138.52419216025,Torrens Island BESS,TIB
TIBG1,SA1,battery_discharging,250,operating,-34.8058314103454,138.52419216025,Torrens Island BESS,TIB
WATERLWF,SA1,wind,130,operating,-33.991095267936,138.915722795005,Waterloo,WATERLWF
WPWF,SA1,wind,91,operating,-35.1154104383038,137.718672417968,Wattle Point,WPWF
WGWF1,SA1,wind,119,operating,-33.393569,138.84821,Willogoleche,WGWF
WINGF1_1,SA1,bioenergy_biogas,5,operating,-34.835138,138.548949,Wingfield,WINGF1
WINGF2_1,SA1,bioenergy_biogas,5,operating,-34.835138,138.548949,Wingfield 2,WINGF2
SNWYGJP2,SNOWY1,pumps,70,retired,-36.434918,148.63057,Jindabyne Pump At Guthega,SNWYGJP2
SNOWYGJP,VIC1,pumps,70,operating,-36.434918,148.63057,Jindabyne Pump At Guthega,SNWYGJP2
BASTYAN,TAS1,hydro,80,operating,-41.7362309059766,145.531588505673,Bastyan,BASTYAN
BBDISEL1,TAS1,distillate,75,retired,-41.127009,146.874083,Bell Bay,BBDISEL1
BELLBAY2,TAS1,gas_steam,120,retired,-41.141944,146.9025,Bell Bay,BELLBAY
BELLBAY1,TAS1,gas_steam,120,retired,-41.141944,146.9025,Bell Bay,BELLBAY
BBTHREE3,TAS1,gas_ocgt,35,operating,-41.1393235629664,146.905521847101,Bell Bay Three,BBP31
TVPP104,TAS1,gas_ocgt,58,operating,-41.1393235629664,146.905521847101,Bell Bay Three,BBP31
BBTHREE2,TAS1,gas_ocgt,35,operating,-41.1393235629664,146.905521847101,Bell Bay Three,BBP31
BBTHREE1,TAS1,gas_ocgt,35,operating,-41.1393235629664,146.905521847101,Bell Bay Three,BBP31
BUTLERSG,TAS1,hydro,15,operating,-42.2671066306884,146.262126696147,Butlers Gorge,BUTLERSG
LI_WY_CA,TAS1,hydro,173,operating,-42.3761311830926,146.509824066027,Catagunya / Liapootah / Wayatinah,LI_WY_CA
CATAGUN1,TAS1,distillate,24,operating,-42.3761311830926,146.509824066027,Catagunya / Liapootah / Wayatinah,LI_WY_CA
CTHLWF1,TAS1,wind,148,operating,-42.1548445,146.6946935,Cattle Hill,CTHLWF
CETHANA,TAS1,hydro,85,operating,-41.4798517889387,146.134471952823,Cethana,CETHANA
CLUNY,TAS1,hydro,19,operating,-42.5062285725933,146.68112292845,Cluny,CLUNY
DEVILS_G,TAS1,hydro,60,operating,-41.3499247124733,146.262708994396,Devils Gate,DEVILS_G
FISHER,TAS1,hydro,43,operating,-41.6726623378254,146.268739375245,Fisher,FISHER
GEORGTN1,TAS1,distillate,30,retired,-41.091063,146.893204,George Town,GEORGTWN
GEORGTN2,TAS1,hydro,,retired,-41.091063,146.893204,George Town,GEORGTWN
GORDON,TAS1,hydro,432,operating,-42.7401570733513,145.983375290986,Gordon,GORDON
GOVILLB1,TAS1,hydro,25,operating,-42.7401570733513,145.983375290986,Gordon,GORDON
GRANWF1,TAS1,wind,111,operating,-41.802,145.056,Granville Harbour,GRANWF
JBUTTERS,TAS1,hydro,144,operating,-42.1558901868039,145.536508422632,John Butters,JBUTTERS
LK_ECHO,TAS1,hydro,32,operating,-42.253338934193,146.620514767182,Lake Echo,LK_ECHO
LEM_WIL,TAS1,hydro,82,operating,-41.4831352514032,146.125337536866,Lemonthyme / Wilmot,LEM_WIL
MACKNTSH,TAS1,hydro,80,operating,-41.7013629992737,145.646558100718,Mackintosh,MACKNTSH
MEADOWBK,TAS1,hydro,40,operating,-42.6108345032123,146.846387654813,Meadowbank,MEADOWBK
MEADOWB2,TAS1,distillate,24,operating,-42.6108345032123,146.846387654813,Meadowbank,MEADOWBK
MIDLDPS1,TAS1,hydro,6,operating,-42.085747,147.274558,Midlands,MIDLDPS
MUSSELR1,TAS1,wind,168,operating,-40.7771052626774,148.006314660477,Musselroe,MUSSELRO
PALOONA,TAS1,hydro,33,operating,-41.2826795416183,146.248580482472,Paloona,PALOONA
POAT110,TAS1,hydro,100,operating,-41.8050732147105,146.924365498824,Poatina,PTINA110
PO110NL1,TAS1,hydro,25,operating,-41.8050732147105,146.924365498824,Poatina,PTINA110
POAT220,TAS1,hydro,200,operating,-41.8050732147105,146.924365498824,Poatina,PTINA220
PORTLAT1,TAS1,distillate,11,retired,-40.857362,145.384824,Port Latta,PORTLATT
QUERIVE1,TAS1,distillate,24,retired,-41.610502,145.544305,Que River,QUERIVER
REECE1,TAS1,hydro,116,operating,-41.7231313449952,145.136468433099,Reece,REECE
REECE2,TAS1,hydro,116,operating,-41.7231313449952,145.136468433099,Reece,REECE
REMOUNT,TAS1,bioenergy_biogas,2,operating,-41.398447,147.1495,Remount,REMOUNT
REPULSE,TAS1,hydro,28,operating,-42.507986886479,146.64716982064,Repulse,REPULSE
ROWALLAN,TAS1,hydro,11,operating,-41.729569831849,146.218086949827,Rowallan,ROWALLAN
TVCC201,TAS1,gas_ccgt,208.6,operating,-41.1392679526502,146.906184786351,Tamar Valley,TVCCPS
TARRALEA,TAS1,hydro,90,operating,-42.301735605204,146.456661016905,Tarraleah,TARRALEA
TREVALLN,TAS1,hydro,93,operating,-41.4223016124435,147.112025239595,Trevallyn,TREVALLN
TRIBUTE,TAS1,hydro,83,operating,-41.8114682913897,145.653251895339,Tribute,TRIBUTE
TRIBNL1,TAS1,hydro,25,operating,-41.8114682913897,145.653251895339,Tribute,TRIBUTE
TUNGATIN,TAS1,hydro,125,operating,-42.2963963682648,146.45588138196,Tungatinah,TUNGATIN
WOOLNTH1,TAS1,wind,140,operating,-40.7363747501987,144.694820513736,Woolnorth,WOOLNTH1
APS,VIC1,coal_brown,165,retired,-38.389031,144.180589,Angelsea,APS
ARWF1,VIC1,wind,241.59,operating,-37.263393,143.082116,Ararat,ARWF
BDL02,VIC1,gas_ocgt,46,operating,-37.8422305015248,147.56372527022,Bairnsdale,DEIBDL
BDL01,VIC1,gas_ocgt,46,operating,-37.8422305015248,147.56372527022,Bairnsdale,DEIBDL
BALDHWF1,VIC1,wind,106.6,operating,-38.7581889808652,145.956062446578,Bald Hills,BHWF
BALBL1,VIC1,battery_charging,30,operating,-37.567452,143.852741,Ballarat,BALBESS
BALBG1,VIC1,battery_discharging,30,operating,-37.567452,143.852741,Ballarat,BALBESS
BBASEHOS,VIC1,gas_recip,1,operating,-37.558774,143.847247,Ballarat Hospital,BBASEHOS
BAPS,VIC1,hydro,12,operating,-36.534524,147.459788,Banimboola,BAPS
BANN1,VIC1,solar_utility,100,operating,-34.67263,142.750362,Bannerton,BANNSP
BRYB1WF1,VIC1,wind,180.6,operating,-37.9807408934913,143.472217087048,Berrybank,BRYB1WF1
BRYB2WF2,VIC1,wind,109,operating,-37.9807408934913,143.472217087048,Berrybank,BRYB1WF1
BERWICK,VIC1,bioenergy_biogas,7,operating,-37.940819,145.236257,Berwick,BERWICK
MCKAY1,VIC1,hydro,53,operating,-36.8054709519161,147.22784471544,Bogong / Mackay,MCKAY
MCKAY2,VIC1,hydro,53,operating,-36.8054709519161,147.22784471544,Bogong / Mackay,MCKAY
BROADMDW,VIC1,bioenergy_biogas,5,operating,-37.685081,144.966114,Broadmeadows,BROADMDW
BROOKLYN,VIC1,bioenergy_biogas,3,operating,-37.818597,144.828492,Brooklyn,BROOKLYN
BULBESL1,VIC1,battery_charging,20,operating,-37.0395070757126,142.982798861375,Bulgana Green Power Hub,BULGANA
BULBESG1,VIC1,battery_discharging,20,operating,-37.0395070757126,142.982798861375,Bulgana Green Power Hub,BULGANA
BULGANA1,VIC1,wind,204,operating,-37.0395070757126,142.982798861375,Bulgana Green Power Hub,BULGANA
CHALLHWF,VIC1,wind,52,operating,-37.3954659700352,143.104590414104,Challicum Hills,CHALLWF
CHPSTWF1,VIC1,wind,6,operating,-37.596503,143.499582,Chepstowe,CHPSTWF
CHYTWF1,VIC1,wind,57,operating,,,Cherry Tree,CHYTWF
CLAYTON,VIC1,bioenergy_biogas,11,operating,-37.950618,145.119681,Clayton,CLAYTON
CLOVER,VIC1,hydro,29,operating,-36.7851502429106,147.219516864346,Clover,CLOVER
CLOVER2,VIC1,hydro,14.5,retired,-36.7851502429106,147.219516864346,Clover,CLOVER
CLOVER1,VIC1,hydro,14.5,retired,-36.7851502429106,147.219516864346,Clover,CLOVER
CODRNGTON,VIC1,wind,18,operating,-38.2828746908265,141.95496017677,Codrington,CODRGTON
COHUNSF1,VIC1,solar_utility,31.1,committed,-35.8803166255988,144.221530854885,Cohuna,COHUNSF1
CBWF1,VIC1,wind,19.8,operating,-36.472722,143.322039,Coonoer Bridge,CBWF
CORIO1,VIC1,bioenergy_biogas,1,operating,-38.059048,144.404905,Corio,CORIO
CROWLWF1,VIC1,wind,79,operating,-36.97615,143.097998,Crowlands,CROWLWF
DARTM1,VIC1,hydro,150,operating,-36.5552897653927,147.519872277055,Dartmouth,DARTM
DIAPURWF1,VIC1,wind,8,operating,-36.3399525534641,141.447360647165,Diapur 2,DIAPURWF
DUNDWF1,VIC1,wind,168,operating,-37.8638943,142.9434538,Dundonnell,DUNDWF
DUNDWF2,VIC1,wind,46,operating,-37.8638943,142.9434538,Dundonnell,DUNDWF
DUNDWF3,VIC1,wind,121,operating,-37.8638943,142.9434538,Dundonnell,DUNDWF
EILDON1,VIC1,hydro,60,operating,-37.2212623147345,145.92096602967,Eildon,EILDON
EILDON2,VIC1,hydro,60,operating,-37.2212623147345,145.92096602967,Eildon,EILDON
EILDON3,VIC1,hydro,5,operating,-37.221774,145.922582,Eildon,EILDONPD
ELAINWF1,VIC1,wind,83,operating,,,Elaine,ELAINEWF
MOR1,VIC1,coal_brown,90,retired,-38.254444,146.413611,Energy Brix,ENERGYB
MOR2,VIC1,coal_brown,30,retired,-38.254444,146.413611,Energy Brix,ENERGYB
MOR3,VIC1,coal_brown,75,retired,-38.254444,146.413611,Energy Brix,ENERGYB
GANNBL1,VIC1,battery_charging,30,operating,-35.735056,143.779462,Gannawarra,GANNBESS
GANNBG1,VIC1,battery_discharging,30,operating,-35.735056,143.779462,Gannawarra,GANNBESS
GANNSF1,VIC1,solar_utility,25,operating,-35.73,143.7711,Gannawarra,GANNSF
GLENMAG1,VIC1,hydro,4,operating,-37.904836,146.800388,Glenmaggie,GLENMAGG
GLRWNSF1,VIC1,solar_utility,132,operating,-36.4880826970103,146.146887248495,Glenrowan West,GLRWNSF
HLMSEW01,VIC1,hydro,1,operating,-38.143332,145.119964,Hallam,HLMSEW01
HALAMRD1,VIC1,bioenergy_biogas,9,operating,-38.052181,145.267798,Hallam Road,HALAMRD
HWPS1,VIC1,coal_brown,220,retired,-38.2705750514914,146.389794163907,Hazelwood,HAZEL
HWPS2,VIC1,coal_brown,220,retired,-38.2705750514914,146.389794163907,Hazelwood,HAZEL
HWPS4,VIC1,coal_brown,200,retired,-38.2705750514914,146.389794163907,Hazelwood,HAZEL
HWPS5,VIC1,coal_brown,200,retired,-38.2705750514914,146.389794163907,Hazelwood,HAZEL
HWPS6,VIC1,coal_brown,200,retired,-38.2705750514914,146.389794163907,Hazelwood,HAZEL
HWPS7,VIC1,coal_brown,200,retired,-38.2705750514914,146.389794163907,Hazelwood,HAZEL
HWPS8,VIC1,coal_brown,200,retired,-38.2705750514914,146.389794163907,Hazelwood,HAZEL
HWPS3,VIC1,coal_brown,200,retired,-38.2705750514914,146.389794163907,Hazelwood,HAZEL
HBESSG1,VIC1,battery_discharging,200,operating,-38.2692158276731,146.394723810782,Hazelwood BESS,HBESS
HBESSL1,VIC1,battery_charging,200,operating,-38.2692158276731,146.394723810782,Hazelwood BESS,HBESS
HEPWIND1,VIC1,wind,4,operating,-37.424555,144.115711,Hepburn,HEPWIND
HUMEV,VIC1,hydro,29,operating,-36.106887,147.032572,Hume,HUMEV
JLA03,VIC1,gas_ocgt,51,operating,-38.2751112170371,146.427046429655,Jeeralang A,JEERA
JLA01,VIC1,gas_ocgt,51,operating,-38.2751112170371,146.427046429655,Jeeralang A,JEERA
JLA04,VIC1,gas_ocgt,51,operating,-38.2751112170371,146.427046429655,Jeeralang A,JEERA
JLA02,VIC1,gas_ocgt,51,operating,-38.2751112170371,146.427046429655,Jeeralang A,JEERA
JLB01,VIC1,gas_ocgt,76,operating,-38.2738445583474,146.424826524902,Jeeralang B,JEERB
JLB03,VIC1,gas_ocgt,76,operating,-38.2738445583474,146.424826524902,Jeeralang B,JEERB
JLB02,VIC1,gas_ocgt,76,operating,-38.2738445583474,146.424826524902,Jeeralang B,JEERB
KARSF1,VIC1,solar_utility,104,operating,-34.227904,142.28033,Karadoc,KARSF
KIAMSF1,VIC1,solar_utility,239,operating,-35.0181331271962,142.30295254616,Kiamal,KIAMSF1
KIATAWF1,VIC1,wind,31,operating,-36.397693,141.746827,Kiata,KIATAWF
LNGS1,VIC1,gas_ocgt,156,operating,-37.8416932952368,144.788006154048,Laverton North,LNGS
LAVNORTH,VIC1,gas_ocgt,,retired,-37.8416932952368,144.788006154048,Laverton North,LNGS
LNGS2,VIC1,gas_ocgt,156,operating,-37.8416932952368,144.788006154048,Laverton North,LNGS
LONGFORD,VIC1,gas_ocgt,44,operating,-38.223244,147.1631,Longford,LONGFORD
LYA3,VIC1,coal_brown,560,operating,-38.2506223018629,146.576361288504,Loy Yang A,LOYYANGA
LYA2,VIC1,coal_brown,530,operating,-38.2506223018629,146.576361288504,Loy Yang A,LOYYANGA
LYA4,VIC1,coal_brown,560,operating,-38.2506223018629,146.576361288504,Loy Yang A,LOYYANGA
LYA1,VIC1,coal_brown,560,operating,-38.2506223018629,146.576361288504,Loy Yang A,LOYYANGA
LOYYB2,VIC1,coal_brown,500,operating,-38.2536191822701,146.585593179624,Loy Yang B,LOYYB
LOYYB1,VIC1,coal_brown,500,operating,-38.2536191822701,146.585593179624,Loy Yang B,LOYYB
MACARTH1,VIC1,wind,420,operating,-38.0434828383441,142.179080598594,Macarthur,MACARTH
MAROOWF1,VIC1,wind,6,operating,-37.41875,142.82434,Maroona,MAROOWF1
MOORAWF1,VIC1,wind,150,operating,-37.7394327265983,144.17198546588,Moorabool,MOORAWF1
MORNW,VIC1,bioenergy_biogas,1,retired,-38.392054,144.854791,Mornington Disposal,MORNW
MORTLK11,VIC1,gas_ocgt,283,operating,-38.0626278266324,142.666330491351,Mortlake,MORTLK
MORTLK12,VIC1,gas_ocgt,283,operating,-38.0626278266324,142.666330491351,Mortlake,MORTLK
MRTLSWF1,VIC1,wind,153,operating,-38.1479652,142.8822464,Mortlake South,MRTLSWF
MLWF1,VIC1,wind,20,operating,-37.8331864361526,142.465288088147,Mortons Lane,MLWF
MTGELWF1,VIC1,wind,137.98,operating,-38.257657,143.798651,Mt Gellibrand,MTGELWF
MERCER01,VIC1,wind,131,operating,-37.8475926188678,143.870183020168,Mt Mercer,MTMERCER
MUWAWF2,VIC1,wind,210,committed,-36.438821,142.246003,Murra Warra,MUWAWF
MUWAWF1,VIC1,wind,231,operating,-36.438821,142.246003,Murra Warra,MUWAWF
MURRAY,VIC1,hydro,1500,operating,-36.2459918850709,148.188551670122,Murray,MURRAY
NPS,VIC1,gas_steam,500,operating,-37.8413742466,144.89547862132,Newport,NEWPORT
NUMURSF1,VIC1,solar_utility,74,operating,-36.159275,145.473891,Numurkah,NUMURKSF
OAKLAND1,VIC1,wind,67,operating,-37.6794809945517,142.55299488617,Oaklands Hill,OAKLAND
PIBESSL1,VIC1,battery_charging,7,operating,-38.4832929083288,145.224879763146,Phillip Island BESS,PIBESS
PIBESSG1,VIC1,battery_discharging,7,operating,-38.4832929083288,145.224879763146,Phillip Island BESS,PIBESS
PORTWF,VIC1,wind,148,operating,-38.3614171461369,141.384559747436,Portland,PORTWF
RUBICON,VIC1,hydro,13,operating,-37.2924532185463,145.818202438307,Rubicon,RUBICON
SALTCRK1,VIC1,wind,54,operating,-37.918698,142.796027,Salt Creek,SALTCRK
SHEP1,VIC1,bioenergy_biogas,1,operating,-36.322223,145.379291,Shepparton,SHEP1
AGLSOM,VIC1,gas_ocgt,170,operating,-37.6309486600574,144.95309828615,Somerton,AGLSOM
SVALE1,VIC1,bioenergy_biogas,5,operating,-37.973375,145.139695,Springvale,SVALE
STOCKYD1,VIC1,wind,456.96,operating,-37.5356798617577,143.252547714229,Stockyard Hill,STOCKYD
TATURA01,VIC1,bioenergy_biogas,1,operating,-36.47915,145.235037,Tatura,TATURA
TIMWEST,VIC1,wind,7,operating,-38.528351,142.916231,Timboon West,TIMWEST
TOORAWF,VIC1,wind,21,operating,-38.653527957636,146.339773925194,Toora,TOORAWF
TGNSS1,VIC1,gas_recip,10,operating,-37.833513,144.965955,Traralgon Network Support,TGNSS
VPGS3,VIC1,gas_ocgt,50,operating,-38.2526008522186,146.588905933432,Valley Aking,VPGS
VPGS2,VIC1,gas_ocgt,50,operating,-38.2526008522186,146.588905933432,Valley Aking,VPGS
VPGS4,VIC1,gas_ocgt,50,operating,-38.2526008522186,146.588905933432,Valley Aking,VPGS
VPGS5,VIC1,gas_ocgt,50,operating,-38.2526008522186,146.588905933432,Valley Aking,VPGS
VPGS1,VIC1,gas_ocgt,50,operating,-38.2526008522186,146.588905933432,Valley Aking,VPGS
VPGS6,VIC1,gas_ocgt,50,operating,-38.2526008522186,146.588905933432,Valley Aking,VPGS
LYGS2,VIC1,gas_ocgt,,retired,-38.2534987005311,146.588945661366,Valley Power,LYGS
LYGS3,VIC1,gas_ocgt,,retired,-38.2534987005311,146.588945661366,Valley Power,LYGS
LYGS4,VIC1,gas_ocgt,,retired,-38.2534987005311,146.588945661366,Valley Power,LYGS
LYGS5,VIC1,gas_ocgt,,retired,-38.2534987005311,146.588945661366,Valley Power,LYGS
LYGS1,VIC1,gas_ocgt,,retired,-38.2534987005311,146.588945661366,Valley Power,LYGS
LYGS6,VIC1,gas_ocgt,,retired,-38.2534987005311,146.588945661366,Valley Power,LYGS
VPGS,VIC1,gas_ocgt,,retired,-38.2534987005311,146.588945661366,Valley Power,LYGS
VBBG1,VIC1,battery_discharging,360,operating,-38.0382795014632,144.291003184659,Victoria Big Battery,VBB
VBBL1,VIC1,battery_charging,360,operating,-38.0382795014632,144.291003184659,Victoria Big Battery,VBB
WAUBRAWF,VIC1,wind,192,operating,-37.3579790620375,143.592600206467,Waubra,WAUBRAWF
WEMENSF1,VIC1,solar_utility,97,operating,-34.80259,142.543348,Wemen,WEMENSF1
WKIEWA2,VIC1,hydro,31,operating,-36.7596736933686,147.186082145768,West Kiewa,WKIEWA
WKIEWA1,VIC1,hydro,31,operating,-36.7596736933686,147.186082145768,West Kiewa,WKIEWA
WINTSF1,VIC1,solar_utility,85,operating,-36.4996951041726,146.114554165058,Winton,WINTSF1
WOLLERT1,VIC1,bioenergy_biogas,7,operating,-37.591792,145.043033,Wollert,WOLLERT
WONWP,VIC1,wind,12,operating,-38.60513,145.546292,Wonthaggi,WONWP
WYNDW,VIC1,bioenergy_biogas,1,retired,-37.935372,144.5898,Wyndham,WYNDW
YWPS1,VIC1,coal_brown,360,operating,-38.1775962168516,146.347508446364,Yallourn W,YALLOURN
YWPS2,VIC1,coal_brown,360,operating,-38.1775962168516,146.347508446364,Yallourn W,YALLOURN
YWPS3,VIC1,coal_brown,380,operating,-38.1775962168516,146.347508446364,Yallourn W,YALLOURN
YWPS4,VIC1,coal_brown,380,operating,-38.1775962168516,146.347508446364,Yallourn W,YALLOURN
YSWF1,VIC1,wind,28,operating,-37.716474,144.241947,Yaloak South,YSWF
YAMBUKWF,VIC1,wind,30,operating,-38.305278107624,142.018439165612,Yambuk,YAMBUK
YWNGAHYD,VIC1,hydro,9,operating,-36.009466,145.999568,Yarrawonga,YWNGAHYD
YATSF1,VIC1,solar_utility,94,operating,-34.3807297303397,142.205340248922,Yatpool,YATSF1
YAWWF1,VIC1,wind,7.2,operating,-36.471022,143.361722,Yawong,YAWWF
YENDWF1,VIC1,wind,144,operating,-37.630952,144.022463,Yendon,YENDONWF
