,network_region,code,fueltech,capacity_registered,status,data_first_seen,lat,lon,station_name,station_code
0,NSW1,APPIN,gas_wcmg,55.0,operating,,-34.210868,150.792711,Appin,APPIN
1,NSW1,AVLSF1,solar_utility,245.0,operating,,-34.91911505022873,146.60953991534387,Avonlie,AVLSF
2,NSW1,AWABAREF,bioenergy_biogas,1.0,retired,,-33.023339,151.551228,Awaba,AWABAREF
3,NSW1,BANGOWF2,wind,84.8,operating,2021-06-05T00:25:00+10:00,-34.767207772932835,148.92149870748742,Bango,BANGOWF
4,NSW1,BANGOWF1,wind,244.0,operating,2020-12-01T00:25:00+10:00,-34.767207772932835,148.92149870748742,Bango,BANGOWF
5,NSW1,BANKSPT1,distillate,1.0,retired,,-33.919998,151.033742,Bankstown Sports Club,BANKSPT
6,NSW1,BW03,coal_black,660.0,operating,1998-12-07T01:50:00+10:00,-32.3935017885229,150.953963043732,Bayswater,BAYSW
7,NSW1,BW01,coal_black,660.0,operating,1998-12-07T01:50:00+10:00,-32.3935017885229,150.953963043732,Bayswater,BAYSW
8,NSW1,BW04,coal_black,660.0,operating,1998-12-07T01:50:00+10:00,-32.3935017885229,150.953963043732,Bayswater,BAYSW
9,NSW1,BW02,coal_black,660.0,operating,1998-12-07T01:50:00+10:00,-32.3935017885229,150.953963043732,Bayswater,BAYSW
10,NSW1,BERYLSF1,solar_utility,98.0,operating,2019-04-01T00:25:00+10:00,-32.347501,149.460738,Beryl,BERYLSF
11,NSW1,GULLRWF2,wind,110.67,operating,2020-05-01T00:25:00+10:00,-34.58783555632732,149.36984787301526,Biala,BIALAWF
12,NSW1,BLAYNEY,wind,9.9,operating,,-33.621944,149.198333,Blayney,BLAYNEY
13,NSW1,BLOWERNG,hydro,80.0,operating,2001-06-22T21:25:00+10:00,-35.3974021381011,148.247225084376,Blowering,SNOWY6
14,NSW1,SNOWY6,hydro,80.0,retired,1998-12-07T01:50:00+10:00,-35.3974021381011,148.247225084376,Blowering,SNOWY6
15,NSW1,BOCORWF1,wind,113.0,operating,2014-08-28T23:55:00+10:00,-36.574526757506106,149.12486288728599,Boco Rock,BOCOROCK
16,NSW1,BODWF1,wind,113.0,operating,2018-07-09T23:25:00+10:00,-32.407128,149.04133000000002,Bodangora,BODWF
17,NSW1,BOMENSF1,solar_utility,121.0,operating,2020-03-01T00:25:00+10:00,,,Bomen,BOMENSF
18,NSW1,BWTR1,bioenergy_biogas,38.0,operating,,-29.016483,153.44575600000002,Broadwater,BWTR1
19,NSW1,BROKENH1,solar_utility,27.0,operating,2015-08-01T00:25:00+10:00,-31.988905,141.391547,Broken Hill,BROKENH
20,NSW1,GB01,distillate,50.0,operating,2010-10-31T23:25:00+10:00,-31.9863131909747,141.420620039361,Broken Hill,BHILLGT
21,NSW1,BHBL1,battery_charging,66.0,operating,,-31.986163906693065,141.42288679594998,Broken Hill Battery,BHB
22,NSW1,BHBG1,battery_discharging,66.0,operating,,-31.986163906693065,141.42288679594998,Broken Hill Battery,BHB
23,NSW1,BROWNMT,hydro,5.0,operating,,-36.594993,149.473997,Brown Mountain,BROWNMT
24,NSW1,BDONGHYD,hydro,19.0,operating,,-32.664646999999995,149.108016,Burrendong,BDONGHYD
25,NSW1,BURRIN,hydro,27.0,operating,,-35.003532219190895,148.57989053933,Burrinjuck,BURRIN
26,NSW1,CAPTL_WF,wind,140.0,operating,2010-10-31T23:25:00+10:00,-35.123534200872996,149.500248815014,Capital,CAPTL_WF
27,NSW1,CESF1,solar_utility,1.0,operating,,-35.180684,149.546482,Capital East,CESF
28,NSW1,COLEASF1,solar_utility,180.0,operating,2018-09-01T00:25:00+10:00,-34.759494000000004,145.92983999999998,Coleambally,COLEASF
29,NSW1,COLWF01,wind,113.0,operating,2020-11-01T00:25:00+10:00,-34.82387856332685,149.39679534436084,Collector,COLWF01
30,NSW1,CG4,gas_ocgt,181.0,operating,2009-05-20T09:55:00+10:00,-33.2087809607995,151.543540042872,Colongra,COLONGRA
31,NSW1,CG2,gas_ocgt,181.0,operating,2009-05-20T09:55:00+10:00,-33.2087809607995,151.543540042872,Colongra,COLONGRA
32,NSW1,CG3,gas_ocgt,181.0,operating,2009-05-20T09:55:00+10:00,-33.2087809607995,151.543540042872,Colongra,COLONGRA
33,NSW1,CG1,gas_ocgt,181.0,operating,2009-05-20T09:55:00+10:00,-33.2087809607995,151.543540042872,Colongra,COLONGRA
34,NSW1,CONDONG1,bioenergy_biogas,30.0,operating,,-28.314766,153.433808,Condong,CONDONG1
35,NSW1,COPTNHYD,hydro,22.5,operating,,-29.907544,150.930235,Copeton,COPTNHYD
36,NSW1,CRWASF1,solar_utility,35.99,committed,2021-02-01T00:25:00+10:00,-35.98629033640848,146.36145628096025,Corowa,CRWASF1
37,NSW1,CROOKWEL,wind,4.8,operating,,-34.5165,149.54248,Crookwell,CROOKWEL
38,NSW1,CROOKWF2,wind,96.0,operating,2018-07-31T22:55:00+10:00,-34.547676,149.589254,Crookwell 2,CROOKWF2
39,NSW1,CRURWF1,wind,141.0,operating,2020-11-01T00:25:00+10:00,-32.86474841023679,149.81297006628185,Crudine Ridge,CRURWF1
40,NSW1,CULLRGWF,wind,30.0,operating,2010-10-31T23:25:00+10:00,-34.7509945681949,149.38102679924802,Cullerin Range,CULLERIN
41,NSW1,DARLSF1,solar_utility,324.0,operating,2020-08-01T00:25:00+10:00,-34.64480799740922,146.03575554070937,Darlington Point,DARLSF
42,NSW1,DPNTBL1,battery_charging,25.0,operating,,-34.64666830459466,146.0349818819095,Darlington Point,DPNTB
43,NSW1,DPNTBG1,battery_discharging,25.0,operating,,-34.64666830459466,146.0349818819095,Darlington Point,DPNTB
44,NSW1,PMATTAEP,gas_recip,4.0,retired,,-33.824397,151.04214199999998,Earthpower,PMATTAEP
45,NSW1,EASTCRK,bioenergy_biogas,5.0,operating,,-33.815468,150.854307,Eastern Creek,EASTCRK
46,NSW1,EASTCRK2,bioenergy_biogas,8.98,operating,,-33.815468,150.854307,Eastern Creek 2,EASTCRK2
47,NSW1,ER01,coal_black,720.0,operating,1998-12-07T01:50:00+10:00,-33.0615480516907,151.524612285081,Eraring,ERARING
48,NSW1,ER02,coal_black,720.0,operating,1998-12-07T01:50:00+10:00,-33.0615480516907,151.524612285081,Eraring,ERARING
49,NSW1,ER04,coal_black,720.0,operating,1998-12-07T08:30:00+10:00,-33.0615480516907,151.524612285081,Eraring,ERARING
50,NSW1,ER03,coal_black,720.0,operating,1998-12-07T01:50:00+10:00,-33.0615480516907,151.524612285081,Eraring,ERARING
51,NSW1,ERGT01,distillate,42.0,operating,2013-05-26T23:25:00+10:00,-33.062117,151.517224,Eraring,ERGT01
52,NSW1,FINLYSF1,solar_utility,162.0,operating,2019-07-01T00:25:00+10:00,-35.64421,145.508644,Finley,FINLEYSF
53,NSW1,FLYCRKWF,wind,3.8,operating,,-33.52147510941558,149.04523360122465,Flyers Creek Wind Farm,FLYCRKWF
54,NSW1,GLBWNHYD,hydro,5.5,operating,,-32.107937,150.999481,Glenbawn,GLBWNHYD
55,NSW1,GLENNCRK,gas_wcmg,12.0,operating,,-32.464343,151.130432,Glennies Creek,GLENNCRK
56,NSW1,GOONSF1,solar_utility,85.0,operating,2020-05-01T00:25:00+10:00,,,Goonumbla,GOONUMSF
57,NSW1,GRANGEAV,bioenergy_biogas,2.0,operating,,-33.713011,150.83316000000002,Grange Avenue,GRANGEAV
58,NSW1,GRIFSF1,solar_utility,27.0,operating,2018-04-01T00:25:00+10:00,-34.317414,146.120739,Griffith,GRIFSF
59,NSW1,GULLRWF1,wind,165.0,operating,2013-11-18T23:55:00+10:00,-34.624511555250805,149.458548623602,Gullen Range,GULLRGWF
60,NSW1,GULLRSF1,solar_utility,10.0,operating,2017-08-14T23:55:00+10:00,-34.624511555250805,149.458548623602,Gullen Range,GULLRGWF
61,NSW1,GNNDHSF1,solar_utility,144.0,committed,2021-06-29T10:55:00+10:00,-30.965468597893086,150.36791728427633,Gunnedah,GNNDHSF
62,NSW1,GUNNING1,wind,47.0,operating,2011-03-24T23:55:00+10:00,-34.676360746605894,149.66443017949499,Gunning,GUNNING
63,NSW1,GUTHEGA,hydro,60.0,operating,2001-06-22T21:25:00+10:00,-36.3497724824309,148.414030190556,Guthega,SNOWY3
64,NSW1,SNOWY3,hydro,,retired,1998-12-07T03:15:00+10:00,-36.3497724824309,148.414030190556,Guthega,SNOWY3
65,NSW1,HAMPTON,wind,1.32,operating,,-33.649722,150.05,Hampton,HAMPTON
66,NSW1,HILLSTN1,solar_utility,110.0,committed,2021-10-05T12:10:00+10:00,-33.53299147224749,145.5222788865883,Hillston Sun,HILLSTN
67,NSW1,HUMENSW,hydro,29.0,operating,1998-12-08T21:25:00+10:00,-36.1063825051951,147.032263443678,Hume,HUMENSW
68,NSW1,HEZ1,distillate,28.0,operating,,-32.835481,151.451033,Hunter Economic Zone,HEZ
69,NSW1,HEZ,distillate,29.0,retired,,-32.835481,151.451033,Hunter Economic Zone,HEZ
70,NSW1,HVGTS,distillate,50.0,operating,1998-12-07T10:25:00+10:00,-32.3899891907919,150.965962887934,Hunter Valley,HUNTVGT
71,NSW1,JACKSGUL,bioenergy_biogas,2.0,operating,,-34.072955,150.74369099999998,Jacks Gully,JACKSGUL
72,NSW1,JEMALNG1,solar_utility,55.0,operating,2020-12-01T00:25:00+10:00,-33.388764003159444,147.66937504508036,Jemalong,JEMALNG1
73,NSW1,JNDABNE1,hydro,1.0,operating,,-36.434917999999996,148.63057,Jindabyne,JNDSHPS
74,SNOWY1,SNWYGJP2,pumps,70.0,retired,,-36.434917999999996,148.63057,Jindabyne Pump At Guthega,SNWYGJP2
75,VIC1,SNOWYGJP,pumps,70.0,operating,2019-11-11T00:25:00+10:00,-36.434917999999996,148.63057,Jindabyne Pump At Guthega,SNWYGJP2
76,NSW1,JOUNAMA1,hydro,14.0,operating,,-35.561274,148.306384,Jounama,JOUNAMA
77,NSW1,JUNEESF1,solar_utility,30.0,committed,2021-05-25T12:40:00+10:00,-34.81124045584803,147.5720987420689,Junee,JUNEESF
78,NSW1,KEEPIT,hydro,6.0,operating,,-30.87868,150.491876,Keepit,KEEPIT
79,NSW1,AGLSITA1,bioenergy_biogas,1.0,operating,,,,Kemps Creek,AGLSITA
80,NSW1,KINCUM1,bioenergy_biogas,1.0,operating,,-33.477111,151.402603,Kincumber,KINCUMB
81,NSW1,KKGTS,gas_ccgt,,retired,1998-12-07T10:45:00+10:00,,,Koolkhan,KOOLKHAN
82,NSW1,LD03,coal_black,500.0,retired,1998-12-07T20:25:00+10:00,-32.3690267892295,150.980112150275,Liddell,LIDDELL
83,NSW1,LD04,coal_black,500.0,retired,1998-12-07T20:25:00+10:00,-32.3690267892295,150.980112150275,Liddell,LIDDELL
84,NSW1,LD02,coal_black,500.0,retired,1998-12-07T01:50:00+10:00,-32.3690267892295,150.980112150275,Liddell,LIDDELL
85,NSW1,LD01,coal_black,500.0,retired,1998-12-07T01:50:00+10:00,-32.3690267892295,150.980112150275,Liddell,LIDDELL
86,NSW1,LIMOSF11,solar_utility,275.0,operating,2020-06-01T00:25:00+10:00,-34.7755018,143.50804630000002,Limondale,LIMOSF1
87,NSW1,LIMOSF21,solar_utility,38.0,operating,2019-12-01T00:25:00+10:00,-34.7755018,143.50804630000002,Limondale 2,LIMOSF2
88,NSW1,LUCAS2S2,bioenergy_biogas,5.0,operating,,-34.044088,150.972475,Lucas Heights 2,LUCAS2S2
89,NSW1,LUCASHGT,bioenergy_biogas,12.65,retired,,,,Lucas Heights 2,LUCASHGT
90,NSW1,MANSLR1,solar_utility,25.0,operating,2018-04-01T00:25:00+10:00,-33.172831,148.71823999999998,Manildra,MANSLR
91,NSW1,METZSF1,solar_utility,135.0,operating,,,,Metz N,METZSF
92,NSW1,MOLNGSF1,solar_utility,36.0,operating,2020-11-01T00:25:00+10:00,-33.08257771229906,148.90007342453686,Molong,MOLNGSF1
93,NSW1,MOREESF1,solar_utility,57.0,operating,2016-02-08T23:55:00+10:00,-29.572607,149.861266,Moree,MOREESF
94,NSW1,MP2,coal_black,700.0,operating,1998-12-07T01:50:00+10:00,-33.3607151085441,150.03569813637,Mt Piper,MP
95,NSW1,MP1,coal_black,700.0,operating,1998-12-07T01:50:00+10:00,-33.3607151085441,150.03569813637,Mt Piper,MP
96,NSW1,MLSP1,solar_utility,12.0,operating,2016-11-16T12:55:00+10:00,-35.398441,149.14906000000002,Mugga Lane,MLSP
97,NSW1,MM3,coal_black,300.0,retired,1998-12-07T01:50:00+10:00,-33.211781,151.54216100000002,Munmorah,MM
98,NSW1,MM4,coal_black,300.0,retired,1998-12-07T20:25:00+10:00,-33.211781,151.54216100000002,Munmorah,MM
99,NSW1,NASF1,solar_utility,10.0,operating,,-32.218323,148.254523,Narromine,NASF
100,NSW1,NEVERSF1,solar_utility,132.0,operating,2019-12-01T00:25:00+10:00,-31.831043800000003,147.70517780000003,Nevertire,NEVERSF
101,NSW1,NEWENSF2,solar_utility,200.0,operating,,-30.627322613322704,151.55642476144078,New England,NEWENSF
102,NSW1,NEWENSF1,solar_utility,200.0,operating,,-30.627322613322704,151.55642476144078,New England,NEWENSF
103,NSW1,NGTS,gas_ocgt,,retired,1998-12-07T10:45:00+10:00,,,Northern,NORTHGT
104,NSW1,NYNGAN1,solar_utility,102.0,operating,2014-12-15T23:55:00+10:00,-31.563191344278497,147.074195112039,Nyngan,NYNGAN
105,NSW1,PARSF1,solar_utility,55.0,operating,2017-12-12T23:55:00+10:00,-33.113056,148.076372,Parkes,PSF
106,NSW1,PINDARI,hydro,6.0,operating,,-29.388034,151.244774,Pindari,PINDARI
107,NSW1,QBYNBL1,battery_charging,10.0,operating,,-35.33943352721403,149.2160653306813,Queanbeyan,QBYNB
108,NSW1,QBYNBG1,battery_discharging,10.0,operating,,-35.33943352721403,149.2160653306813,Queanbeyan,QBYNB
109,NSW1,REDBANK1,coal_black,150.0,retired,2001-01-18T20:55:00+10:00,-32.58,151.072,Redbank,REDBANK1
110,NSW1,RIVNBG2,battery_discharging,65.0,operating,,-34.64666830459466,146.0349818819095,Riverina Battery,RESS
111,NSW1,RIVNBL2,battery_charging,65.0,operating,,-34.64666830459466,146.0349818819095,Riverina Battery,RESS
112,NSW1,RESS1L,battery_charging,80.0,operating,,-34.64666830459466,146.0349818819095,Riverina Battery,RESS
113,NSW1,RESS1G,battery_discharging,80.0,operating,,-34.64666830459466,146.0349818819095,Riverina Battery,RESS
114,NSW1,ROYALLA1,solar_utility,20.0,operating,2016-04-22T23:55:00+10:00,-35.486052460420105,149.141965695762,Royalla,ROYALLA
115,NSW1,RYEPARK1,wind,396.0,operating,,-34.63316963326623,148.95364033809858,Rye Park,RYEPARK
116,NSW1,SAPHWF1,wind,270.0,operating,2017-12-06T23:55:00+10:00,-29.710272999999997,151.44558,Sapphire,SAPHWF1
117,NSW1,SEBSF1,solar_utility,110.0,committed,,-34.60328657660709,147.55475705396842,Sebastopol,SEBSF
118,NSW1,SHPUMP,pumps,240.0,operating,1998-12-07T11:55:00+10:00,-34.7330846446504,150.466700105161,Shoalhaven,SHOALHAV
119,NSW1,SHGEN,hydro,240.0,operating,1998-12-07T10:45:00+10:00,-34.7330846446504,150.466700105161,Shoalhaven,SHOALHAV
120,NSW1,SHOAL1,gas_ocgt,60.0,operating,,-34.85486811643706,150.6164029846568,Shoalhaven Starches,SHOAL
121,NSW1,STWF1,wind,198.0,operating,2018-02-01T00:25:00+10:00,-31.86095,141.296349,Silverton,STWF
122,NSW1,SITHE01,gas_ccgt,39.0,operating,1998-12-07T01:50:00+10:00,-33.8500226284367,150.950050828532,Smithfield,SITHE
123,NSW1,SNOWY4,hydro,,retired,1998-12-07T03:15:00+10:00,,,Snowy,SNOWY4
124,NSW1,SNOWY5,hydro,,retired,1998-12-07T08:15:00+10:00,,,Snowy,SNOWY5
125,NSW1,SKSF1,solar_utility,15.0,operating,,-32.272859999999994,148.64983600000002,South Keswick,SKSF
126,NSW1,STGEORG1,distillate,1.0,operating,,-33.974819000000004,151.129354,St George Leagues Club,STGEORGE
127,NSW1,SUNRSF1,solar_utility,228.0,operating,2020-11-01T00:25:00+10:00,-34.821489157371836,143.50915997932083,Sunraysia,SUNRSF1
128,NSW1,SUNTPSF1,solar_utility,150.0,committed,2021-07-25T00:25:00+10:00,-32.57419982636524,148.86046867468156,Suntop,SUNTPSF
129,NSW1,TAHMOOR1,gas_wcmg,7.0,operating,,-34.249117,150.577718,Tahmoor,TAHMOOR
130,NSW1,TALWA1,gas_ccgt,440.0,operating,2008-06-17T09:55:00+10:00,-34.5230894452804,150.808566045493,Tallawarra,TALLAWAR
131,NSW1,TALWB1,gas_ocgt,320.0,operating,,-34.5230894452804,150.808566045493,Tallawarra B,TALWB
132,NSW1,TARALGA1,wind,106.0,operating,2014-12-10T23:55:00+10:00,-34.4253872675598,149.859603200677,Taralga,TARALGA
133,NSW1,TERALBA,gas_wcmg,3.0,operating,,-32.945557,151.612042,Teralba,TERALBA
134,NSW1,THEDROP1,hydro,3.0,operating,,-35.973527000000004,145.99927399999999,The Drop,THEDROP
135,NSW1,TOWER,gas_wcmg,41.0,operating,,-34.219460999999995,150.71801200000002,Tower,TOWER
136,NSW1,UPPTUMUT,hydro,616.0,operating,2001-06-22T21:25:00+10:00,-35.9534920741923,148.369693358993,Tumut,SNOWY2
137,NSW1,SNOWY2,hydro,616.0,retired,1998-12-07T03:15:00+10:00,-35.9534920741923,148.369693358993,Tumut,SNOWY2
138,NSW1,TUMUT3,hydro,1500.0,operating,2001-06-22T21:25:00+10:00,-35.6108171090502,148.29264351448998,Tumut 3,TUMUT3
139,NSW1,SNOWYP,pumps,600.0,operating,1998-12-07T11:55:00+10:00,-35.6108171090502,148.29264351448998,Tumut 3,TUMUT3
140,NSW1,TUMUT3-4,hydro,250.0,retired,,-35.6108171090502,148.29264351448998,Tumut 3,TUMUT3
141,NSW1,TUMUT3-6,hydro,250.0,retired,,-35.6108171090502,148.29264351448998,Tumut 3,TUMUT3
142,NSW1,TUMUT3-5,hydro,250.0,retired,,-35.6108171090502,148.29264351448998,Tumut 3,TUMUT3
143,NSW1,TUMUT3-3,hydro,250.0,retired,,-35.6108171090502,148.29264351448998,Tumut 3,TUMUT3
144,NSW1,TUMUT3-1,hydro,250.0,retired,,-35.6108171090502,148.29264351448998,Tumut 3,TUMUT3
145,NSW1,TUMUT3-2,hydro,250.0,retired,,-35.6108171090502,148.29264351448998,Tumut 3,TUMUT3
146,NSW1,URANQ13,gas_ocgt,166.0,operating,2008-06-17T10:25:00+10:00,-35.180225647620205,147.21565992714,Uranquinty,URANQ
147,NSW1,URANQ14,gas_ocgt,166.0,operating,2008-06-17T10:25:00+10:00,-35.180225647620205,147.21565992714,Uranquinty,URANQ
148,NSW1,URANQ11,gas_ocgt,166.0,operating,2008-06-17T10:25:00+10:00,-35.180225647620205,147.21565992714,Uranquinty,URANQ
149,NSW1,URANQ12,gas_ocgt,166.0,operating,2008-06-17T10:25:00+10:00,-35.180225647620205,147.21565992714,Uranquinty,URANQ
150,NSW1,VP5,coal_black,660.0,operating,1998-12-07T20:25:00+10:00,-33.164639,151.5441155,Vales Point B,VP
151,NSW1,VP6,coal_black,660.0,operating,1998-12-07T01:50:00+10:00,-33.164639,151.5441155,Vales Point B,VP
152,NSW1,WAGGNSF1,solar_utility,55.0,committed,2021-07-17T00:25:00+10:00,-35.069081178076296,147.43822726118572,Wagga North,WAGGNSF
153,NSW1,WW7,coal_black,500.0,retired,1998-12-07T08:30:00+10:00,-33.403889,150.084444,Wallerawang,WW
154,NSW1,WW8,coal_black,500.0,retired,1998-12-07T01:50:00+10:00,-33.403889,150.084444,Wallerawang,WW
155,NSW1,WALGRVL1,battery_charging,50.0,operating,,-33.81747581892088,150.8272761693095,Wallgrove,WALGRV
156,NSW1,WALGRVG1,battery_discharging,50.0,operating,,-33.81747581892088,150.8272761693095,Wallgrove,WALGRV
157,NSW1,WG01,hydro,50.0,retired,2010-10-31T23:25:00+10:00,-33.883064000000005,150.595436,Warragamba,WG
158,NSW1,WELLSF1,solar_utility,216.0,operating,2020-11-01T00:25:00+10:00,,,Wellington,WELLSF1
159,NSW1,WELNSF1,solar_utility,436.8,operating,,,,Wellington North,WELNSF
160,NSW1,WESTILL1,distillate,1.0,operating,,-34.451645,150.843037,West Illawarra Leagues Club,WESTILLA
161,NSW1,AGLNOW1,bioenergy_biogas,1.0,operating,,-34.882318,150.551075,West Nowra,AGLNOW1
162,NSW1,WSTWYSF1,solar_utility,105.0,operating,,-33.7956353638098,147.3145445846548,West Wyalong,WSTWYSF
163,NSW1,WESTCBT1,distillate,1.0,operating,,-34.051072999999995,150.83275700000002,Western Suburbs League Club,WESTCBT
164,NSW1,WRSF1,solar_utility,22.0,operating,2018-08-01T00:25:00+10:00,,,White Rock,WHIROCWIND
165,NSW1,WRWF1,wind,175.0,operating,2017-07-05T23:55:00+10:00,,,White Rock,WHIROCWIND
166,NSW1,WILGAPK,gas_recip,10.0,operating,,-30.314444,149.65276799999998,Wilga Park,WILGAPK
167,NSW1,WILGB01,gas_recip,12.0,operating,,-30.314444,149.65276799999998,Wilga Park B,WILGAPKB
168,NSW1,NINEWIL1,distillate,3.0,operating,,-33.810858,151.196599,Willoughby,NINEWIL
169,NSW1,WDLNGN01,bioenergy_biogas,7.0,operating,,-35.05928,149.5749,Woodlawn,WDLNGN
170,NSW1,WOODLWN1,wind,48.0,operating,2011-05-02T23:55:00+10:00,-35.0816745987566,149.570510727867,Woodlawn,WOODLWN
171,NSW1,WOYWOY1,bioenergy_biogas,1.0,operating,,-33.506914,151.291606,Woy Woy,WOYWOY
172,NSW1,WYASF1,solar_utility,62.32,operating,,-33.80493895585568,147.29515548006776,Wyalong Solar Farm,WYASF
173,NSW1,WYANGALA,hydro,20.0,operating,,-33.980371000000005,148.947377,Wyangala A,WYANGALA
174,NSW1,WYANGALB,hydro,4.0,operating,,-33.980371000000005,148.947377,Wyangala B,WYANGALB
175,QLD1,BAKING1,solar_utility,17.0,operating,,-26.721165999999997,150.55417,Baking Board,BAKING
176,QLD1,BARCALDN,gas_ccgt,37.0,operating,1998-12-07T06:40:00+10:00,-23.5521705751292,145.31485121010098,Barcaldine,BARCALDN
177,QLD1,BARCSF1,solar_utility,10.0,operating,2016-12-21T14:25:00+10:00,-23.547333,145.318972,Barcaldine,BARCSF
178,QLD1,BARRON-2,hydro,30.0,operating,1998-12-07T17:55:00+10:00,-16.8507701285363,145.64704928388701,Barron Gorge,BARRON
179,QLD1,BARRON-1,hydro,30.0,operating,1998-12-07T23:55:00+10:00,-16.8507701285363,145.64704928388701,Barron Gorge,BARRON
180,QLD1,BLUEGSF1,solar_utility,183.0,committed,,-26.691708197534332,150.50003719153324,Blue Grass,BLUEGSF
181,QLD1,BBATTERY,battery_discharging,50.0,operating,,-23.563443095530477,150.45965800764628,Bouldercombe Battery,BBATTERY
182,QLD1,BBATRYL1,battery_charging,50.0,operating,,-23.563443095530477,150.45965800764628,Bouldercombe Battery,BBATTERY
183,QLD1,BRAEMAR2,gas_ocgt,168.0,operating,2006-04-26T19:55:00+10:00,-27.111668775911003,150.907647496929,Braemar,BRAEMARA
184,QLD1,BRAEMAR1,gas_ocgt,168.0,operating,2006-04-26T19:55:00+10:00,-27.111668775911003,150.907647496929,Braemar,BRAEMARA
185,QLD1,BRAEMAR3,gas_ocgt,168.0,operating,2006-04-26T19:55:00+10:00,-27.111668775911003,150.907647496929,Braemar,BRAEMARA
186,QLD1,BRAEMAR7,gas_ocgt,173.0,operating,2009-03-27T09:55:00+10:00,-27.1098726737727,150.90765329885,Braemar 2,B2PS
187,QLD1,BRAEMAR6,gas_ocgt,173.0,operating,2009-03-27T09:55:00+10:00,-27.1098726737727,150.90765329885,Braemar 2,B2PS
188,QLD1,BRAEMAR5,gas_ocgt,173.0,operating,2009-03-27T09:55:00+10:00,-27.1098726737727,150.90765329885,Braemar 2,B2PS
189,QLD1,BPLANDF1,bioenergy_biogas,2.0,operating,,-27.674584000000003,153.068499,Browns Plains,BPLANDF
190,QLD1,CALL_A_2,coal_black,30.0,retired,1998-12-21T06:05:00+10:00,-24.3331687723181,150.626321580678,Callide A,CALL_A
191,QLD1,CALL_A_4,coal_black,30.0,retired,1999-01-14T05:50:00+10:00,-24.3331687723181,150.626321580678,Callide A,CALL_A
192,QLD1,CALL_A_1,coal_black,,retired,1999-01-14T13:10:00+10:00,-24.3331687723181,150.626321580678,Callide A,CALL_A
193,QLD1,CALL_A_3,coal_black,,retired,1999-01-14T04:15:00+10:00,-24.3331687723181,150.626321580678,Callide A,CALL_A
194,QLD1,CALL_B_2,coal_black,350.0,operating,1998-12-07T01:50:00+10:00,-24.3331687723181,150.626321580678,Callide B,CALL_B
195,QLD1,CALL_B_1,coal_black,350.0,operating,1998-12-07T01:50:00+10:00,-24.3331687723181,150.626321580678,Callide B,CALL_B
196,QLD1,CPP_3,coal_black,420.0,operating,2001-01-18T20:55:00+10:00,-24.347222,150.608611,Callide C,CALLIDEC1
197,QLD1,CPP_4,coal_black,420.0,operating,2001-07-24T19:55:00+10:00,-24.347222,150.608611,Callide C,CALLIDEC1
198,QLD1,CHILDSF1,solar_utility,64.0,operating,2019-01-01T00:25:00+10:00,-25.295026999999997,152.403674,Childers,CHILDSF
199,QLD1,CHBESSL1,battery_charging,134.0,operating,,-26.914805034056283,150.74729440740998,Chinchilla,CHBESS
200,QLD1,CHBESSG1,battery_discharging,134.0,operating,,-26.914805034056283,150.74729440740998,Chinchilla,CHBESS
201,QLD1,CLARESF1,solar_utility,110.0,operating,2018-02-01T00:25:00+10:00,-19.83977,147.21055,Clare,CLARESF
202,QLD1,CLERMSF1,solar_utility,92.0,operating,2019-06-01T00:25:00+10:00,-22.8394058,147.5460307,Clermont,CLERMSF
203,QLD1,COLNSV_1,coal_black,30.0,retired,1998-12-07T01:50:00+10:00,-20.543332999999997,147.806944,Collinsville,COLNSV
204,QLD1,COLNSV_2,coal_black,30.0,retired,1998-12-07T13:55:00+10:00,-20.543332999999997,147.806944,Collinsville,COLNSV
205,QLD1,COLNSV_3,coal_black,30.0,retired,1998-12-07T02:00:00+10:00,-20.543332999999997,147.806944,Collinsville,COLNSV
206,QLD1,COLNSV_4,coal_black,30.0,retired,1998-12-07T01:50:00+10:00,-20.543332999999997,147.806944,Collinsville,COLNSV
207,QLD1,COLNSV_5,coal_black,66.0,retired,1998-12-07T01:50:00+10:00,-20.543332999999997,147.806944,Collinsville,COLNSV
208,QLD1,CSPVPS1,solar_utility,42.0,operating,2018-07-01T00:25:00+10:00,-20.55714,147.820552,Collinsville,CSPVPS
209,QLD1,COLUMSF1,solar_utility,50.0,operating,,-26.6360877,150.2822104,Columboola,COLUMSF
210,QLD1,CPSA,gas_ccgt,143.0,operating,2009-06-02T09:55:00+10:00,-26.6666729324806,150.268581153696,Condamine A,CPSA
211,QLD1,COOPGWF1,wind,452.0,operating,2019-06-01T00:25:00+10:00,-26.7170038,151.4491769,Coopers Gap,COOPGWF
212,QLD1,DAANDINE,gas_recip,33.0,operating,,-27.0862943709476,150.94252770215,Daandine,DAANDINE
213,QLD1,DDPS1,gas_ccgt,121.0,operating,2009-11-16T09:55:00+10:00,-27.1168512752019,150.89539128796198,Darling Downs,DDPS1
214,QLD1,DDSF1,solar_utility,121.0,operating,2018-06-01T00:25:00+10:00,-27.112,150.8819,Darling Downs,DDSF
215,QLD1,DAYDSF1,solar_utility,79.0,operating,2018-09-01T00:25:00+10:00,-20.512804,147.691968,Daydream,DAYDSF
216,QLD1,DULAWF1,wind,180.0,operating,,-26.637485359480248,149.87018587777902,Dulacca,DULAWF
217,QLD1,EDENVSF1,solar_utility,180.0,operating,,-26.947486249430344,150.5784941355202,Edenvale,EDENVSF
218,QLD1,EMERASF1,solar_utility,88.0,operating,2018-09-01T00:25:00+10:00,-23.50879,148.128017,Emerald,EMERASF
219,QLD1,GANGARR1,solar_utility,119.28,operating,2021-04-01T00:25:00+10:00,-26.254812591286022,149.9867038361442,Gangarri,GANGARR
220,QLD1,GERMCRK,gas_wcmg,45.0,operating,2013-07-18T09:25:00+10:00,-22.928526,148.549097,German Creek,GERMCRK
221,QLD1,GSTONE1,coal_black,280.0,operating,1998-12-07T01:50:00+10:00,-23.8487410267305,151.22078674103702,Gladstone,G/STONE
222,QLD1,GSTONE4,coal_black,280.0,operating,1998-12-07T01:50:00+10:00,-23.8487410267305,151.22078674103702,Gladstone,G/STONE
223,QLD1,GSTONE6,coal_black,280.0,operating,1998-12-07T01:50:00+10:00,-23.8487410267305,151.22078674103702,Gladstone,G/STONE
224,QLD1,GSTONE2,coal_black,280.0,operating,1998-12-07T01:50:00+10:00,-23.8487410267305,151.22078674103702,Gladstone,G/STONE
225,QLD1,GSTONE3,coal_black,280.0,operating,1998-12-07T01:50:00+10:00,-23.8487410267305,151.22078674103702,Gladstone,G/STONE
226,QLD1,GSTONE5,coal_black,280.0,operating,1998-12-07T01:50:00+10:00,-23.8487410267305,151.22078674103702,Gladstone,G/STONE
227,QLD1,GROSV1,gas_wcmg,21.0,operating,,,,Grosvenor 1,GROSV1
228,QLD1,GROSV2,gas_wcmg,15.0,operating,,,,Grosvenor 1,GROSV2
229,QLD1,HAMISF1,solar_utility,57.0,operating,2018-05-01T00:25:00+10:00,-20.468593,147.799484,Hamilton,HAMISF
230,QLD1,HAUGHT11,solar_utility,132.0,operating,2019-05-01T00:25:00+10:00,-19.732167999999998,147.07613700000002,Haughton,HAUGHT1
231,QLD1,HAYMSF1,solar_utility,57.0,operating,2018-09-01T00:25:00+10:00,-20.536162,147.84606499999998,Hayman,HAYMSF
232,QLD1,HUGSF1,solar_utility,10.0,committed,2018-01-01T00:25:00+10:00,-20.854794000000002,144.186048,Hughenden,HUGSF
233,QLD1,INVICTA,bioenergy_biomass,50.0,operating,2010-10-31T23:25:00+10:00,-19.5157903138225,147.106530479438,Invicta Sugar Mill,INVICTA
234,QLD1,ICSM,bioenergy_biomass,25.0,operating,,-25.197619,152.206949,Isis Central Sugar Mill,ICSM
235,QLD1,KRCCOGEN,gas_ocgt,5.0,retired,,-27.573590000000003,151.926883,KRC Cogen,KRCCOGEN
236,QLD1,KABANWF1,wind,156.0,operating,,-17.56060647720051,145.41312495396448,Kaban,KABANWF
237,QLD1,KAREEYA3,hydro,21.0,operating,1998-12-07T01:50:00+10:00,-17.7664558224223,145.576884428941,Kareeya,KAREEYA
238,QLD1,KAREEYA2,hydro,21.0,operating,1998-12-07T04:05:00+10:00,-17.7664558224223,145.576884428941,Kareeya,KAREEYA
239,QLD1,KAREEYA1,hydro,21.0,operating,1998-12-07T01:50:00+10:00,-17.7664558224223,145.576884428941,Kareeya,KAREEYA
240,QLD1,KAREEYA4,hydro,21.0,operating,1998-12-07T01:50:00+10:00,-17.7664558224223,145.576884428941,Kareeya,KAREEYA
241,QLD1,KAREEYA5,hydro,7.0,operating,,-17.7664558224223,145.576884428941,Kareeya,KAREEYA
242,QLD1,KEPWF1,wind,43.2,operating,2021-07-06T13:20:00+10:00,-20.872792,144.413034,Kennedy Energy Park,KENNEDY
243,QLD1,KEPBG1,battery_discharging,2.0,operating,2021-07-09T17:10:00+10:00,-20.872792,144.413034,Kennedy Energy Park,KENNEDY
244,QLD1,KEPBL1,battery_charging,2.0,operating,,-20.872792,144.413034,Kennedy Energy Park,KENNEDY
245,QLD1,KEPSF1,solar_utility,15.0,operating,2021-07-06T10:05:00+10:00,-20.872792,144.413034,Kennedy Energy Park,KENNEDY
246,QLD1,KSP1,solar_utility,50.0,operating,2017-11-22T23:55:00+10:00,-18.88,144.151,Kidston,KSP1
247,QLD1,KPP_1,coal_black,744.0,operating,2007-04-03T20:25:00+10:00,-26.915284998618198,150.748947538925,Kogan Creek,KOGANCK
248,QLD1,LILYSF1,solar_utility,118.0,operating,2019-02-01T00:25:00+10:00,-23.070504,148.413865,Lilyvale,LILYVASF
249,QLD1,LRSF1,solar_utility,17.0,operating,2018-03-01T00:25:00+10:00,-23.455048,144.227917,Longreach,LRSF
250,QLD1,MACKAYGT,distillate,30.0,operating,1999-01-12T01:55:00+10:00,-21.1444407069939,149.159170667386,Mackay,MACKAY
251,QLD1,MARYRSF1,solar_utility,33.0,operating,2020-02-01T00:25:00+10:00,-27.7089727,151.5468693,Maryrorough,MARYRSF
252,QLD1,MIDDLSF1,solar_utility,30.0,operating,2020-12-01T00:25:00+10:00,-22.82223463474125,148.7201154902096,Middlemount,MIDDLSF1
253,QLD1,MPP_1,coal_black,426.0,operating,2001-05-15T18:25:00+10:00,-27.9616570077391,151.28090983869,Millmerran,MILLMERN
254,QLD1,MPP_2,coal_black,426.0,operating,2001-08-15T19:25:00+10:00,-27.9616570077391,151.28090983869,Millmerran,MILLMERN
255,QLD1,MORANBAH,gas_recip,13.0,operating,,-21.962469,148.006004,Moranbah,MORANBAH
256,QLD1,MBAHNTH,gas_wcmg,63.0,operating,2014-10-20T23:55:00+10:00,-21.978481,148.004809,Moranbah North,MBAHNTH
257,QLD1,MOUSF1,solar_utility,99.0,operating,,-24.509628260067526,150.07664771206112,Moura,MOUSF
258,QLD1,MEWF1,wind,180.0,operating,2018-08-13T23:25:00+10:00,-17.133248000000002,145.38003700000002,Mt Emerald,MEWF
259,QLD1,MSTUART3,distillate,131.0,operating,2009-10-15T09:55:00+10:00,-19.3371562032237,146.851238997871,Mt Stuart,MSTUART
260,QLD1,MSTUART1,distillate,144.0,operating,1998-12-14T11:50:00+10:00,-19.3371562032237,146.851238997871,Mt Stuart,MSTUART
261,QLD1,MSTUART2,distillate,144.0,operating,1998-12-20T03:55:00+10:00,-19.3371562032237,146.851238997871,Mt Stuart,MSTUART
262,QLD1,OAKEY1,gas_ocgt,141.0,operating,1999-09-22T20:55:00+10:00,-27.4182072591559,151.678887225743,Oakey,OAKEY
263,QLD1,OAKEY2,gas_ocgt,141.0,operating,1999-09-30T23:55:00+10:00,-27.4182072591559,151.678887225743,Oakey,OAKEY
264,QLD1,OAKEY1SF,solar_utility,30.0,operating,2019-03-01T00:25:00+10:00,-27.402454,151.6425757,Oakey,OAKEY1SF
265,QLD1,OAKEY2SF,solar_utility,65.0,operating,2019-09-01T00:25:00+10:00,-27.402454,151.6425757,Oakey 2,OAKEY2SF
266,QLD1,OAKYCREK,gas_recip,20.0,operating,,-23.048717,148.484462,Oaky Creek,OCPS
267,QLD1,OAKY2,gas_wcmg,15.0,operating,,-23.048717,148.484462,Oaky Creek 2,OAKY2
268,QLD1,PIONEER,bioenergy_biomass,68.0,operating,2010-10-31T23:25:00+10:00,-19.557546,147.330825,Pioneer Sugar Mill,PIONEER
269,QLD1,RACOMIL1,bioenergy_biomass,48.5,operating,,-21.163842000000002,149.13573799999998,Racecourse Mill,RACOMIL
270,QLD1,ROCHEDAL,bioenergy_biogas,4.0,retired,,-27.555798,153.123155,Rochedale,ROCHEDAL
271,QLD1,RPCG,bioenergy_biomass,30.0,operating,2011-01-28T11:55:00+10:00,-27.733564,153.326464,Rocky Point Cogen,RPCG
272,QLD1,EDLRGNRD,bioenergy_biogas,2.0,retired,,-27.342062,153.04949399999998,Roghan Road,EDLRGNRD
273,QLD1,ROMA_7,gas_ocgt,40.0,operating,1999-02-09T11:45:00+10:00,-26.576788038755602,148.839485013731,Roma,ROMA
274,QLD1,ROMA_8,gas_ocgt,40.0,operating,1999-02-05T13:20:00+10:00,-26.576788038755602,148.839485013731,Roma,ROMA
275,QLD1,RRSF1,solar_utility,128.0,operating,2018-06-01T00:25:00+10:00,-19.425304999999998,146.715686,Ross River,RRSF
276,QLD1,RUGBYR1,solar_utility,83.0,operating,2019-05-01T00:25:00+10:00,-21.940469,147.880877,Rugby Run,RUGBYR
277,QLD1,STHBKTEC,distillate,1.0,retired,,-27.480589000000002,153.020999,Southbank Institute Of Technology,STHBKTEC
278,QLD1,STAN-2,coal_black,365.0,operating,1998-12-07T01:50:00+10:00,-23.507501145433302,150.317883708605,Stanwell,STANWELL
279,QLD1,STAN-3,coal_black,365.0,operating,1998-12-07T01:50:00+10:00,-23.507501145433302,150.317883708605,Stanwell,STANWELL
280,QLD1,STAN-1,coal_black,365.0,operating,1998-12-07T01:50:00+10:00,-23.507501145433302,150.317883708605,Stanwell,STANWELL
281,QLD1,STAN-4,coal_black,365.0,operating,1998-12-07T01:50:00+10:00,-23.507501145433302,150.317883708605,Stanwell,STANWELL
282,QLD1,STAPYLTON1,bioenergy_biogas,3.0,operating,,,,Stapylton,STAPYLTON
283,QLD1,SMCSF1,solar_utility,117.0,operating,2018-05-01T00:25:00+10:00,-19.437317999999998,146.696015,Sun Metals,SMCSF
284,QLD1,SUNCOAST,bioenergy_biomass,1.0,retired,,,,Suncoast Gold Macadamias,SUNCOAST
285,QLD1,VALDORA1,solar_utility,15.0,operating,,-26.560799,153.025947,Sunshine Coast,VALDORA
286,QLD1,SRSF1,solar_utility,85.0,operating,2018-12-01T00:25:00+10:00,-25.420275,152.742028,Susan River,SRSF
287,QLD1,SWAN_A_2,gas_ocgt,,retired,1998-12-07T07:15:00+10:00,-27.6552859093397,152.818643586756,Swanbank B,SWAN_B
288,QLD1,SWAN_B_1,coal_black,125.0,retired,1998-12-07T01:50:00+10:00,-27.6552859093397,152.818643586756,Swanbank B,SWAN_B
289,QLD1,SWAN_B_3,coal_black,125.0,retired,1998-12-07T03:00:00+10:00,-27.6552859093397,152.818643586756,Swanbank B,SWAN_B
290,QLD1,SWAN_B_4,coal_black,125.0,retired,1998-12-07T04:05:00+10:00,-27.6552859093397,152.818643586756,Swanbank B,SWAN_B
291,QLD1,MRIDGE,gas_ocgt,,retired,1999-01-14T17:00:00+10:00,-27.6552859093397,152.818643586756,Swanbank B,SWAN_B
292,QLD1,SWAN_A_5,gas_ocgt,,retired,1998-12-21T12:35:00+10:00,-27.6552859093397,152.818643586756,Swanbank B,SWAN_B
293,QLD1,SWAN_A_6,gas_ocgt,,retired,1998-12-07T07:30:00+10:00,-27.6552859093397,152.818643586756,Swanbank B,SWAN_B
294,QLD1,SWAN_C,gas_ocgt,,retired,1999-05-10T09:00:00+10:00,-27.6552859093397,152.818643586756,Swanbank B,SWAN_B
295,QLD1,SWAN_A_4,gas_ocgt,,retired,1998-12-08T10:15:00+10:00,-27.6552859093397,152.818643586756,Swanbank B,SWAN_B
296,QLD1,SWAN_A_3,gas_ocgt,,retired,1999-01-04T13:50:00+10:00,-27.6552859093397,152.818643586756,Swanbank B,SWAN_B
297,QLD1,SWAN_B_2,coal_black,125.0,retired,1998-12-07T01:50:00+10:00,-27.6552859093397,152.818643586756,Swanbank B,SWAN_B
298,QLD1,SWAN_D,gas_ocgt,,retired,1999-02-02T13:20:00+10:00,-27.6552859093397,152.818643586756,Swanbank B,SWAN_B
299,QLD1,SWAN_A_1,gas_ocgt,,retired,1998-12-07T05:35:00+10:00,-27.6552859093397,152.818643586756,Swanbank B,SWAN_B
300,QLD1,SWAN_E,gas_ccgt,385.0,operating,2002-05-15T20:25:00+10:00,-27.6552859093397,152.818643586756,Swanbank E,SWAN_E
301,QLD1,TABMILL2,bioenergy_biomass,24.0,operating,,-17.119813,145.34513,Tableland Mill,TABMILL2
302,QLD1,TARONG#2,coal_black,350.0,operating,1998-12-07T01:50:00+10:00,-26.7743967256886,151.91783763481502,Tarong,TARONG
303,QLD1,TARONG#1,coal_black,350.0,operating,1998-12-07T01:50:00+10:00,-26.7743967256886,151.91783763481502,Tarong,TARONG
304,QLD1,TARONG#3,coal_black,350.0,operating,1998-12-07T01:50:00+10:00,-26.7743967256886,151.91783763481502,Tarong,TARONG
305,QLD1,TARONG#4,coal_black,350.0,operating,1998-12-07T01:50:00+10:00,-26.7743967256886,151.91783763481502,Tarong,TARONG
306,QLD1,TNPS1,coal_black,443.0,operating,2002-09-17T02:55:00+10:00,-26.7743967256886,151.91783763481502,Tarong North,TARONGN
307,QLD1,YABULU2,gas_ccgt,82.0,operating,2004-10-21T20:55:00+10:00,-19.2003738513919,146.61826474008998,Townsville,YABULU
308,QLD1,YABULU,gas_ccgt,160.0,operating,1998-12-16T18:35:00+10:00,-19.2003738513919,146.61826474008998,Townsville,YABULU
309,QLD1,TITREE,bioenergy_biogas,2.0,operating,,-27.695551000000002,152.65031299999998,Veolia Ti Tree,TITREE
310,QLD1,VICMILL1,bioenergy_biomass,24.0,operating,,-18.650208,146.200866,Victoria Mill,VICMILL
311,QLD1,WANDSF1,solar_utility,159.0,operating,,-26.263563967767258,149.7722434039925,Wandoan Solar Farm,WANDSF
312,QLD1,WANDBG1,battery_discharging,150.0,operating,2021-07-13T00:25:00+10:00,-26.263986201894923,149.7728711343933,Wandoan South,WANDBG
313,QLD1,WANDBL1,battery_charging,150.0,operating,2021-07-13T00:25:00+10:00,-26.263986201894923,149.7728711343933,Wandoan South,WANDBG
314,QLD1,WARWSF1,solar_utility,39.0,committed,2020-09-01T00:25:00+10:00,-28.18321,152.066792,Warwick,WARWSF1
315,QLD1,WARWSF2,solar_utility,39.0,committed,2020-09-01T00:25:00+10:00,-28.18321,152.066792,Warwick,WARWSF2
316,QLD1,WDGPH1,solar_utility,500.0,committed,,-26.927922233879436,150.60154238317526,Western Downs,WDGPH
317,QLD1,WHITSF1,solar_utility,57.0,operating,2018-05-01T00:25:00+10:00,-20.537259,147.80475,Whitsunday,WHITSF
318,QLD1,WHIT1,bioenergy_biogas,1.0,retired,,-27.620454,152.824409,Whitwood Road,WHIT1
319,QLD1,WHILL1,wind,12.0,operating,,-17.590398999999998,145.52968,Windy Hill,WINDHILL
320,QLD1,W/HOE#1,hydro,285.0,operating,1998-12-17T14:35:00+10:00,-27.3722237672267,152.63236172623698,Wivenhoe,WIVENHOE
321,QLD1,PUMP2,pumps,240.0,operating,1998-12-28T15:55:00+10:00,-27.3722237672267,152.63236172623698,Wivenhoe,WIVENHOE
322,QLD1,W/HOE#2,hydro,285.0,operating,1998-12-15T09:45:00+10:00,-27.3722237672267,152.63236172623698,Wivenhoe,WIVENHOE
323,QLD1,PUMP1,pumps,240.0,operating,1998-12-20T02:45:00+10:00,-27.3722237672267,152.63236172623698,Wivenhoe,WIVENHOE
324,QLD1,WIVENSH,hydro,5.0,operating,,-27.394592,152.609237,Wivenhoe,WIVENSH
325,QLD1,WOOLGSF1,solar_utility,222.5,operating,,-26.0845224,152.4412264,Woolooga,WOOLGSF
326,QLD1,YARANSF1,solar_utility,121.0,operating,2020-01-01T00:25:00+10:00,-27.7089394,151.5326965,Yarranlea,YARANSF
327,QLD1,YARWUN_1,gas_ccgt,154.0,operating,2010-06-30T09:55:00+10:00,-23.8302003068757,151.149691648905,Yarwun,YARWUN
328,SA1,ADPBA1L,battery_charging,6.27,operating,2021-04-01T00:25:00+10:00,-35.09694820846758,138.48406087198447,Adelaide Desalination,ADP
329,SA1,ADPBA1G,battery_discharging,6.27,operating,2021-04-01T00:25:00+10:00,-35.09694820846758,138.48406087198447,Adelaide Desalination,ADP
330,SA1,AMCORGR,distillate,4.0,retired,,-34.882663,138.577975,Amcor Glass,AMCORGR
331,SA1,ANGAST1,distillate,50.0,operating,2016-05-26T23:55:00+10:00,-34.5039482864289,139.024296339333,Angaston,ANGASTON
332,SA1,ANGAS1,distillate,30.0,operating,2004-12-30T22:25:00+10:00,-34.5039482864289,139.024296339333,Angaston,ANGASTON
333,SA1,ANGAS2,distillate,20.0,operating,2004-12-30T22:25:00+10:00,-34.5039482864289,139.024296339333,Angaston,ANGASTON
334,SA1,BARKIPS1,gas_recip,211.0,operating,2019-10-15T16:55:00+10:00,-34.804,138.524,Barker Inlet,BARKIPS
335,SA1,BLULAKE1,distillate,1.0,retired,,-36.316596999999994,140.75757099999998,Blue Lake Milling,BLULAKE
336,SA1,BOWWBA1G,battery_discharging,3.08,committed,,-34.495482,138.387641,Bolivar,BOLIVAR
337,SA1,BOWWBA1L,battery_charging,3.08,committed,,-34.495482,138.387641,Bolivar,BOLIVAR
338,SA1,BOWWPV1,solar_utility,8.25,committed,,-34.495482,138.387641,Bolivar,BOLIVAR
339,SA1,BOLIVAR1,bioenergy_biogas,10.0,committed,,-34.495482,138.387641,Bolivar,BOLIVAR
340,SA1,BOLIVPS1,gas_ccgt,128.0,operating,,,,Bolivar,BOLIVPS
341,SA1,BNGSF1,solar_utility,135.0,operating,2018-04-30T22:55:00+10:00,-32.423316,137.841798,Bungala One,BNGSF1
342,SA1,BNGSF2,solar_utility,135.0,operating,2018-07-01T00:25:00+10:00,-32.406993,137.840933,Bungala Two,BNGSF2
343,SA1,CNUNDAWF,wind,46.0,operating,2010-10-31T23:25:00+10:00,-37.6983027777778,140.383633333333,Canunda,CANUNDA1
344,SA1,CATHROCK,wind,66.0,operating,2010-10-31T23:25:00+10:00,-34.8487411412149,135.592648854827,Cathedral Rocks,CATHROCK
345,SA1,CBWWBA1G,battery_discharging,2.09,committed,,-35.12595812265642,138.4713503667427,Christies Beach,CBWWBA
346,SA1,CBWWBA1L,battery_charging,2.09,committed,,-35.12595812265642,138.4713503667427,Christies Beach,CBWWBA
347,SA1,CBWWPV1,solar_utility,2.1,committed,,-35.12595812265642,138.4713503667427,Christies Beach,CBWWBA
348,SA1,CLEMGPWF,wind,57.0,operating,2009-04-17T09:55:00+10:00,-33.4897731866514,138.11169493851003,Clements Gap,CLEMGPWF
349,SA1,DALNTH01,battery_discharging,30.0,operating,2018-06-04T23:25:00+10:00,-34.888446,137.75811399999998,Dalrymple North,DALNTH
350,SA1,DALNTHL1,battery_charging,30.0,operating,2018-06-04T23:25:00+10:00,-34.888446,137.75811399999998,Dalrymple North,DALNTH
351,SA1,DRYCGT2,gas_ocgt,52.0,operating,1998-12-09T12:55:00+10:00,-34.8472931778913,138.582297039723,Dry Creek,DRYCGT
352,SA1,DRYCGT1,gas_ocgt,52.0,operating,1998-12-07T12:25:00+10:00,-34.8472931778913,138.582297039723,Dry Creek,DRYCGT
353,SA1,DRYCGT3,gas_ocgt,52.0,operating,1998-12-09T15:55:00+10:00,-34.8472931778913,138.582297039723,Dry Creek,DRYCGT
354,SA1,GSWF1B,wind,203.5,operating,,-33.682196301707506,138.93624905375023,Goyder South,GSWF
355,SA1,GSWF1A,wind,209.0,operating,,-33.682196301707506,138.93624905375023,Goyder South,GSWF
356,SA1,AGLHAL,gas_ocgt,217.0,operating,2001-12-18T18:55:00+10:00,-33.3493102447996,138.752632826228,Hallett,AGLHAL
357,SA1,HALLWF1,wind,95.0,operating,2007-12-19T04:50:00+10:00,-33.3284341007768,138.704668661635,Hallett 1,HALLWF
358,SA1,HALLWF2,wind,71.0,operating,2009-05-11T09:55:00+10:00,-33.5382102938784,138.857214598585,Hallett 2,HALLWF2
359,SA1,HVWWBA1G,battery_discharging,5.52,committed,,-35.0631178114067,138.5647604311251,Happy Valley,HVWW
360,SA1,HVWWBA1L,battery_charging,5.52,committed,,-35.0631178114067,138.5647604311251,Happy Valley,HVWW
361,SA1,HVWWPV1,solar_utility,11.0,committed,,-35.0631178114067,138.5647604311251,Happy Valley,HVWW
362,SA1,HIGHBRY1,bioenergy_biogas,2.0,retired,,,,Highbury,HIGHBRY
363,SA1,HDWF1,wind,102.0,operating,2016-06-01T23:55:00+10:00,-33.05982,138.537673,Hornsdale,HORNSDAL
364,SA1,HDWF2,wind,102.0,operating,2017-02-01T00:25:00+10:00,-33.05982,138.537673,Hornsdale 2,HORNSDAL2
365,SA1,HDWF3,wind,112.0,operating,2017-08-14T14:55:00+10:00,-33.05982,138.537673,Hornsdale 3,HORNSDAL3
366,SA1,HPRG1,battery_discharging,150.0,operating,2017-11-13T23:55:00+10:00,-33.085519,138.52191399999998,Hornsdale Power Reserve,HORNSDPR
367,SA1,HPRL1,battery_charging,150.0,operating,2017-11-13T23:55:00+10:00,-33.085519,138.52191399999998,Hornsdale Power Reserve,HORNSDPR
368,SA1,LADBROK1,gas_ocgt,40.0,operating,2000-01-10T01:55:00+10:00,-37.456183170651,140.782699220365,Ladbroke Grove,LADBROKE
369,SA1,LADBROK2,gas_ocgt,40.0,operating,2000-05-04T13:50:00+10:00,-37.456183170651,140.782699220365,Ladbroke Grove,LADBROKE
370,SA1,LBBG1,battery_discharging,25.0,operating,2019-10-01T00:25:00+10:00,-37.7387871,140.3846721,Lake Bonney,LBBESS
371,SA1,LBBL1,battery_charging,25.0,operating,2019-10-01T00:25:00+10:00,-37.7387871,140.3846721,Lake Bonney,LBBESS
372,SA1,LKBONNY1,wind,81.0,operating,2010-10-31T23:25:00+10:00,-37.7605043836737,140.40554118305099,Lake Bonney,LKBONNY1
373,SA1,LKBONNY2,wind,159.0,operating,2007-05-31T17:00:00+10:00,-37.7605043836737,140.40554118305099,Lake Bonney 2,LKBONNY_2
374,SA1,LKBONNY3,wind,39.0,operating,2010-07-02T09:55:00+10:00,-37.7605043836737,140.40554118305099,Lake Bonney 3,LKBONNY3
375,SA1,LGAPWF1,wind,212.4,operating,2019-03-01T00:25:00+10:00,-32.5463326,137.5527629,Lincoln Gap,LGAPWF1
376,SA1,LGAPWF2,wind,86.0,operating,,-32.5463326,137.5527629,Lincoln Gap,LGAPWF1
377,SA1,LONSDALE,distillate,21.0,operating,2016-01-11T23:55:00+10:00,-35.109718,138.49096200000002,Lonsdale,LONSDALE
378,SA1,MANNSF2,solar_utility,29.99,operating,,-34.92021697813909,139.31443846248854,Mannum,MAPS2
379,SA1,MAPS2PV1,solar_utility,2.75,operating,,-34.92021697813909,139.31443846248854,Mannum,MAPS2
380,SA1,MAPS3PV1,solar_utility,2.75,operating,,-34.92021697813909,139.31443846248854,Mannum,MAPS2
381,SA1,MINTARO,gas_ocgt,90.0,operating,1998-12-07T12:25:00+10:00,-33.9031486136929,138.73879717507901,Mintaro,MINTARO
382,SA1,MINTNL1,gas_ocgt,25.0,operating,,-33.9031486136929,138.73879717507901,Mintaro,MINTARO
383,SA1,MTMILLAR,wind,70.0,operating,2010-10-31T23:25:00+10:00,-33.6193424956887,136.717568216817,Mt Millar,MTMILLAR
384,SA1,MBPS2PV1,solar_utility,2.1,operating,,-35.0940934825907,139.21151125343218,Murray Bridge-Onkaparinga,MBPS2
385,SA1,NBHWF1,wind,132.0,operating,2010-07-19T09:55:00+10:00,-33.2281156193048,138.71688837303898,North Brown Hill,NBHWF
386,SA1,NPS1,coal_brown,265.0,retired,1998-12-07T01:50:00+10:00,-32.5429,137.7874,Northern,NORTHP
387,SA1,NPS2,coal_brown,265.0,retired,1998-12-07T01:50:00+10:00,-32.5429,137.7874,Northern,NORTHP
388,SA1,NPSNL1,coal_brown,100.0,retired,,-32.5429,137.7874,Northern,NORTHP
389,SA1,NPSNL2,coal_brown,100.0,retired,,-32.5429,137.7874,Northern,NORTHP
390,SA1,OSB-AG,gas_ccgt,180.0,operating,2000-02-15T13:25:00+10:00,-34.797699815377,138.50809861051098,Osborne,OSBORNE
391,SA1,OSB01,gas_ccgt,,retired,1998-12-07T01:50:00+10:00,-34.797699815377,138.50809861051098,Osborne,OSBORNE
392,SA1,OSB02,gas_ccgt,,retired,1998-12-07T01:50:00+10:00,-34.797699815377,138.50809861051098,Osborne,OSBORNE
393,SA1,PEDLER1,bioenergy_biogas,3.0,retired,,-35.202388,138.50121399999998,Pedler Creek,PEDLER
394,SA1,PPCCGT,gas_ccgt,478.0,operating,2000-09-07T20:25:00+10:00,-34.764365355128604,138.5053993318,Pelican Point,NPPPPS
395,SA1,PLAYFB4,coal_brown,60.0,retired,1998-12-07T01:50:00+10:00,-32.538886,137.781822,Playford B,PLAYF
396,SA1,PLAYFB2,coal_brown,60.0,retired,1998-12-07T01:50:00+10:00,-32.538886,137.781822,Playford B,PLAYF
397,SA1,PLAYFB3,coal_brown,60.0,retired,1998-12-07T01:50:00+10:00,-32.538886,137.781822,Playford B,PLAYF
398,SA1,PLAYB-AG,coal_brown,240.0,retired,1999-05-26T10:30:00+10:00,-32.538886,137.781822,Playford B,PLAYF
399,SA1,PLAYFB1,coal_brown,60.0,retired,1998-12-07T01:50:00+10:00,-32.538886,137.781822,Playford B,PLAYF
400,SA1,PAREPW1,wind,210.0,operating,,-32.59560885770281,137.88562879204383,Port Augusta Energy Park,PAREPW
401,SA1,PAREPS1,solar_utility,99.0,operating,,-32.59560885770281,137.88562879204383,Port Augusta Energy Park,PAREPW
402,SA1,POR01,distillate,50.0,operating,2000-09-28T19:25:00+10:00,-34.700616012351496,135.804530499443,Port Lincoln,PORTLCN
403,SA1,POR03,distillate,23.0,operating,2010-08-20T09:55:00+10:00,-34.700616012351496,135.804530499443,Port Lincoln,PORTLCN
404,SA1,PTSTAN1,distillate,57.6,operating,2016-01-11T23:55:00+10:00,-35.110345,138.490872,Port Stanvac,STANVAC
405,SA1,STANV1,distillate,58.0,operating,,-35.110345,138.490872,Port Stanvac,STANVAC
406,SA1,STANV2,distillate,58.0,operating,,-35.110345,138.490872,Port Stanvac,STANVAC
407,SA1,QPS2,gas_ocgt,24.0,operating,2001-11-08T20:25:00+10:00,-34.7790736853879,138.522454543776,Quarantine,QUARANTN
408,SA1,QPS1,gas_ocgt,29.0,operating,2001-11-08T20:25:00+10:00,-34.7790736853879,138.522454543776,Quarantine,QUARANTN
409,SA1,QPS3,gas_ocgt,24.0,operating,2001-11-08T20:25:00+10:00,-34.7790736853879,138.522454543776,Quarantine,QUARANTN
410,SA1,QPS5,gas_ocgt,128.0,operating,2008-12-19T09:55:00+10:00,-34.7790736853879,138.522454543776,Quarantine,QUARANTN
411,SA1,QPS4,gas_ocgt,24.0,operating,2001-11-08T20:25:00+10:00,-34.7790736853879,138.522454543776,Quarantine,QUARANTN
412,SA1,SNAPPER1,gas_ocgt,154.0,operating,,-34.764519992803145,138.50819008412628,Snapper Point,SNAPPER
413,SA1,SNOWTWN1,wind,99.0,operating,2008-04-15T09:55:00+10:00,-33.6915984540895,138.16602222010098,Snowtown,SNOWTOWN
414,SA1,SNOWNTH1,wind,144.0,operating,2013-09-09T23:55:00+10:00,-33.756478648772394,138.143043187414,Snowtown North,SNOWNTH
415,SA1,SNOWSTH1,wind,126.0,operating,2013-09-09T23:55:00+10:00,-33.862624210288,138.13036653197202,Snowtown South,SNOWSTH
416,SA1,SNUG1,distillate,21.0,operating,1998-12-07T08:25:00+10:00,-37.664995624079204,140.41468562441003,Snuggery,SNUG
417,SA1,SNUG2,distillate,21.0,operating,,-37.664995624079204,140.41468562441003,Snuggery,SNUG
418,SA1,SNUG3,distillate,21.0,operating,,-37.664995624079204,140.41468562441003,Snuggery,SNUG
419,SA1,SNUGNL1,distillate,25.0,operating,,-37.664995624079204,140.41468562441003,Snuggery,SNUG
420,SA1,STARHLWF,wind,35.0,operating,2010-10-31T23:25:00+10:00,-35.5789829575224,138.13965306151698,Starfish Hill,STARFHILL
421,SA1,TBSF1,solar_utility,108.0,operating,2019-02-01T00:25:00+10:00,-35.28,139.49,Tailem Bend,TBSF
422,SA1,TB2SF1,solar_utility,105.0,operating,,-35.28,139.49,Tailem Bend 2,TB2SF
423,SA1,TB2BG1,battery_charging,50.0,operating,,-35.28,139.49,Tailem Bend 2,TB2SF
424,SA1,TB2BL1,battery_discharging,50.0,operating,,-35.28,139.49,Tailem Bend 2,TB2SF
425,SA1,TATIARA1,distillate,1.0,operating,,-36.326977,140.73703500000002,Tataria,TATIARA
426,SA1,TEATREE1,bioenergy_biogas,1.0,retired,,,,Tea Tree Gully,TEATREE
427,SA1,SATGN1,distillate,154.0,retired,2017-10-19T23:55:00+10:00,-34.719707,138.668425,Temporary Generation North,SATGN
428,SA1,SATGS1,distillate,123.0,retired,2017-10-19T23:55:00+10:00,-35.096799,138.483997,Temporary Generation South,SATGS
429,SA1,TERMSTOR,hydro,2.0,retired,,-34.840140000000005,138.712137,Terminal,TERMSTOR
430,SA1,BLUFF1,wind,52.5,operating,2011-07-04T23:55:00+10:00,-33.3677405026772,138.79378986166,The Bluff,BLUFF
431,SA1,TORRB1,gas_steam,200.0,operating,1998-12-07T11:55:00+10:00,-34.8045591391219,138.522228698972,Torrens Island,TORRIS
432,SA1,TORRB2,gas_steam,200.0,operating,1998-12-07T11:55:00+10:00,-34.8045591391219,138.522228698972,Torrens Island,TORRIS
433,SA1,TORRB3,gas_steam,200.0,operating,1998-12-07T01:50:00+10:00,-34.8045591391219,138.522228698972,Torrens Island,TORRIS
434,SA1,TORRA1,gas_steam,120.0,operating,1998-12-07T04:45:00+10:00,-34.8045591391219,138.522228698972,Torrens Island,TORRIS
435,SA1,TORRA2,gas_steam,120.0,operating,1998-12-07T05:55:00+10:00,-34.8045591391219,138.522228698972,Torrens Island,TORRIS
436,SA1,TORRA4,gas_steam,120.0,operating,1998-12-07T11:55:00+10:00,-34.8045591391219,138.522228698972,Torrens Island,TORRIS
437,SA1,TORRB4,gas_steam,200.0,operating,1998-12-07T01:50:00+10:00,-34.8045591391219,138.522228698972,Torrens Island,TORRIS
438,SA1,TORRA3,gas_steam,120.0,operating,1998-12-07T11:55:00+10:00,-34.8045591391219,138.522228698972,Torrens Island,TORRIS
439,SA1,TIBL1,battery_charging,250.0,operating,,-34.80583141034536,138.5241921602499,Torrens Island BESS,TIB
440,SA1,TIBG1,battery_discharging,250.0,operating,,-34.80583141034536,138.5241921602499,Torrens Island BESS,TIB
441,SA1,WATERLWF,wind,130.0,operating,2010-08-20T00:05:00+10:00,-33.991095267936004,138.915722795005,Waterloo,WATERLWF
442,SA1,WPWF,wind,91.0,operating,2010-10-31T23:25:00+10:00,-35.1154104383038,137.718672417968,Wattle Point,WPWF
443,SA1,WGWF1,wind,119.0,operating,2018-07-23T23:25:00+10:00,-33.393569,138.84821000000002,Willogoleche,WGWF
444,SA1,WINGF1_1,bioenergy_biogas,5.0,operating,,-34.835138,138.548949,Wingfield,WINGF1
445,SA1,WINGF2_1,bioenergy_biogas,5.0,operating,,-34.835138,138.548949,Wingfield 2,WINGF2
446,TAS1,BASTYAN,hydro,80.0,operating,2005-05-16T13:35:00+10:00,-41.7362309059766,145.531588505673,Bastyan,BASTYAN
447,TAS1,BBDISEL1,distillate,75.0,retired,2016-05-10T23:55:00+10:00,-41.127009,146.874083,Bell Bay,BBDISEL1
448,TAS1,BELLBAY2,gas_steam,120.0,retired,2005-05-16T13:35:00+10:00,-41.141944,146.9025,Bell Bay,BELLBAY
449,TAS1,BELLBAY1,gas_steam,120.0,retired,2005-05-16T13:35:00+10:00,-41.141944,146.9025,Bell Bay,BELLBAY
450,TAS1,BBTHREE3,gas_ocgt,35.0,operating,2006-06-08T20:55:00+10:00,-41.139323562966396,146.905521847101,Bell Bay Three,BBP31
451,TAS1,TVPP104,gas_ocgt,58.0,operating,2009-03-31T09:55:00+10:00,-41.139323562966396,146.905521847101,Bell Bay Three,BBP31
452,TAS1,BBTHREE2,gas_ocgt,35.0,operating,2006-06-08T20:55:00+10:00,-41.139323562966396,146.905521847101,Bell Bay Three,BBP31
453,TAS1,BBTHREE1,gas_ocgt,35.0,operating,2006-06-08T20:55:00+10:00,-41.139323562966396,146.905521847101,Bell Bay Three,BBP31
454,TAS1,BUTLERSG,hydro,15.0,operating,2010-10-31T23:25:00+10:00,-42.2671066306884,146.262126696147,Butlers Gorge,BUTLERSG
455,TAS1,LI_WY_CA,hydro,173.0,operating,2005-05-16T13:35:00+10:00,-42.3761311830926,146.509824066027,Catagunya / Liapootah / Wayatinah,LI_WY_CA
456,TAS1,CATAGUN1,distillate,24.0,operating,2016-03-10T09:55:00+10:00,-42.3761311830926,146.509824066027,Catagunya / Liapootah / Wayatinah,LI_WY_CA
457,TAS1,CTHLWF1,wind,148.0,operating,2020-01-01T00:25:00+10:00,-42.1548445,146.6946935,Cattle Hill,CTHLWF
458,TAS1,CETHANA,hydro,85.0,operating,2005-05-16T17:05:00+10:00,-41.4798517889387,146.13447195282302,Cethana,CETHANA
459,TAS1,CLUNY,hydro,19.0,operating,2010-10-31T23:25:00+10:00,-42.5062285725933,146.68112292844998,Cluny,CLUNY
460,TAS1,DEVILS_G,hydro,60.0,operating,2005-05-16T13:35:00+10:00,-41.349924712473296,146.262708994396,Devils Gate,DEVILS_G
461,TAS1,FISHER,hydro,43.0,operating,2005-05-16T20:45:00+10:00,-41.6726623378254,146.268739375245,Fisher,FISHER
462,TAS1,GEORGTN1,distillate,30.0,retired,2016-03-17T23:55:00+10:00,-41.091063,146.893204,George Town,GEORGTWN
463,TAS1,GEORGTN2,hydro,,retired,2016-03-28T16:40:00+10:00,-41.091063,146.893204,George Town,GEORGTWN
464,TAS1,GORDON,hydro,432.0,operating,2005-05-16T13:35:00+10:00,-42.7401570733513,145.983375290986,Gordon,GORDON
465,TAS1,GOVILLB1,hydro,25.0,operating,,-42.7401570733513,145.983375290986,Gordon,GORDON
466,TAS1,GRANWF1,wind,111.0,operating,2019-12-01T00:25:00+10:00,-41.802,145.056,Granville Harbour,GRANWF
467,TAS1,JBUTTERS,hydro,144.0,operating,2005-05-16T23:55:00+10:00,-42.1558901868039,145.536508422632,John Butters,JBUTTERS
468,TAS1,LK_ECHO,hydro,32.0,operating,2005-05-16T13:35:00+10:00,-42.253338934193,146.62051476718202,Lake Echo,LK_ECHO
469,TAS1,LEM_WIL,hydro,82.0,operating,2005-05-16T16:00:00+10:00,-41.483135251403205,146.125337536866,Lemonthyme / Wilmot,LEM_WIL
470,TAS1,MACKNTSH,hydro,80.0,operating,2005-05-16T13:35:00+10:00,-41.701362999273705,145.646558100718,Mackintosh,MACKNTSH
471,TAS1,MEADOWBK,hydro,40.0,operating,2005-05-16T13:35:00+10:00,-42.610834503212295,146.84638765481301,Meadowbank,MEADOWBK
472,TAS1,MEADOWB2,distillate,24.0,operating,2016-03-17T23:55:00+10:00,-42.610834503212295,146.84638765481301,Meadowbank,MEADOWBK
473,TAS1,MIDLDPS1,hydro,6.0,operating,,-42.085747,147.274558,Midlands,MIDLDPS
474,TAS1,MUSSELR1,wind,168.0,operating,2013-03-10T23:25:00+10:00,-40.777105262677395,148.00631466047702,Musselroe,MUSSELRO
475,TAS1,PALOONA,hydro,33.0,operating,2010-10-31T23:25:00+10:00,-41.28267954161829,146.248580482472,Paloona,PALOONA
476,TAS1,POAT110,hydro,100.0,operating,2005-05-16T13:35:00+10:00,-41.8050732147105,146.92436549882402,Poatina,PTINA110
477,TAS1,PO110NL1,hydro,25.0,operating,,-41.8050732147105,146.92436549882402,Poatina,PTINA110
478,TAS1,POAT220,hydro,200.0,operating,2005-05-16T13:35:00+10:00,-41.8050732147105,146.92436549882402,Poatina,PTINA220
479,TAS1,PORTLAT1,distillate,11.0,retired,2016-03-28T23:55:00+10:00,-40.857362,145.384824,Port Latta,PORTLATT
480,TAS1,QUERIVE1,distillate,24.0,retired,2016-04-07T10:55:00+10:00,-41.610502000000004,145.544305,Que River,QUERIVER
481,TAS1,REECE1,hydro,116.0,operating,2005-05-16T13:35:00+10:00,-41.7231313449952,145.136468433099,Reece,REECE
482,TAS1,REECE2,hydro,116.0,operating,2005-05-16T13:35:00+10:00,-41.7231313449952,145.136468433099,Reece,REECE
483,TAS1,REMOUNT,bioenergy_biogas,2.0,operating,,-41.398447,147.1495,Remount,REMOUNT
484,TAS1,REPULSE,hydro,28.0,operating,2010-10-31T23:25:00+10:00,-42.507986886479,146.64716982064,Repulse,REPULSE
485,TAS1,ROWALLAN,hydro,11.0,operating,2010-10-31T23:25:00+10:00,-41.729569831849,146.218086949827,Rowallan,ROWALLAN
486,TAS1,TVCC201,gas_ccgt,208.6,operating,2009-06-15T10:25:00+10:00,-41.1392679526502,146.906184786351,Tamar Valley,TVCCPS
487,TAS1,TARRALEA,hydro,90.0,operating,2005-05-16T13:35:00+10:00,-42.301735605204,146.456661016905,Tarraleah,TARRALEA
488,TAS1,TREVALLN,hydro,93.0,operating,2005-05-16T17:40:00+10:00,-41.4223016124435,147.112025239595,Trevallyn,TREVALLN
489,TAS1,TRIBUTE,hydro,83.0,operating,2005-05-16T23:55:00+10:00,-41.8114682913897,145.653251895339,Tribute,TRIBUTE
490,TAS1,TRIBNL1,hydro,25.0,operating,,-41.8114682913897,145.653251895339,Tribute,TRIBUTE
491,TAS1,TUNGATIN,hydro,125.0,operating,2005-05-16T13:35:00+10:00,-42.2963963682648,146.45588138196,Tungatinah,TUNGATIN
492,TAS1,WOOLNTH1,wind,140.0,operating,2010-10-31T23:25:00+10:00,-40.736374750198706,144.694820513736,Woolnorth,WOOLNTH1
493,VIC1,APS,coal_brown,165.0,retired,1998-12-07T01:50:00+10:00,-38.389031,144.180589,Angelsea,APS
494,VIC1,ARWF1,wind,241.59,operating,2016-06-22T23:55:00+10:00,-37.263393,143.08211599999998,Ararat,ARWF
495,VIC1,BDL02,gas_ocgt,46.0,operating,2001-12-13T17:55:00+10:00,-37.842230501524796,147.56372527022,Bairnsdale,DEIBDL
496,VIC1,BDL01,gas_ocgt,46.0,operating,2001-05-08T20:55:00+10:00,-37.842230501524796,147.56372527022,Bairnsdale,DEIBDL
497,VIC1,BALDHWF1,wind,106.6,operating,2015-01-01T00:25:00+10:00,-38.7581889808652,145.95606244657802,Bald Hills,BHWF
498,VIC1,BALBL1,battery_charging,30.0,operating,2018-11-05T23:25:00+10:00,-37.567452,143.85274099999998,Ballarat,BALBESS
499,VIC1,BALBG1,battery_discharging,30.0,operating,2018-11-05T23:25:00+10:00,-37.567452,143.85274099999998,Ballarat,BALBESS
500,VIC1,BBASEHOS,gas_recip,1.0,operating,,-37.558774,143.847247,Ballarat Hospital,BBASEHOS
501,VIC1,BAPS,hydro,12.0,operating,,-36.534524,147.45978799999997,Banimboola,BAPS
502,VIC1,BANN1,solar_utility,100.0,operating,2018-07-01T00:25:00+10:00,-34.67263,142.75036200000002,Bannerton,BANNSP
503,VIC1,BRYB1WF1,wind,180.6,operating,2021-02-01T00:25:00+10:00,-37.98074089349125,143.47221708704777,Berrybank,BRYB1WF1
504,VIC1,BRYB2WF2,wind,109.0,operating,,-37.98074089349125,143.47221708704777,Berrybank,BRYB1WF1
505,VIC1,BERWICK,bioenergy_biogas,7.0,operating,,-37.940819,145.236257,Berwick,BERWICK
506,VIC1,MCKAY1,hydro,53.0,operating,1998-12-07T05:35:00+10:00,-36.80547095191611,147.22784471544,Bogong / Mackay,MCKAY
507,VIC1,MCKAY2,hydro,53.0,operating,1998-12-07T05:35:00+10:00,-36.80547095191611,147.22784471544,Bogong / Mackay,MCKAY
508,VIC1,BROADMDW,bioenergy_biogas,5.0,operating,,-37.685081,144.96611399999998,Broadmeadows,BROADMDW
509,VIC1,BROOKLYN,bioenergy_biogas,3.0,operating,,-37.818597,144.82849199999998,Brooklyn,BROOKLYN
510,VIC1,BULBESL1,battery_charging,20.0,operating,2021-07-06T19:40:00+10:00,-37.03950707571258,142.98279886137544,Bulgana Green Power Hub,BULGANA
511,VIC1,BULBESG1,battery_discharging,20.0,operating,2021-07-01T00:05:00+10:00,-37.03950707571258,142.98279886137544,Bulgana Green Power Hub,BULGANA
512,VIC1,BULGANA1,wind,204.0,operating,2020-05-01T00:25:00+10:00,-37.03950707571258,142.98279886137544,Bulgana Green Power Hub,BULGANA
513,VIC1,CHALLHWF,wind,52.0,operating,2010-10-31T23:25:00+10:00,-37.395465970035204,143.104590414104,Challicum Hills,CHALLWF
514,VIC1,CHPSTWF1,wind,6.0,operating,,-37.596503000000006,143.499582,Chepstowe,CHPSTWF
515,VIC1,CHYTWF1,wind,57.0,operating,2020-04-01T00:25:00+10:00,,,Cherry Tree,CHYTWF
516,VIC1,CLAYTON,bioenergy_biogas,11.0,operating,,-37.950618,145.119681,Clayton,CLAYTON
517,VIC1,CLOVER,hydro,29.0,operating,2010-10-31T23:25:00+10:00,-36.785150242910596,147.21951686434602,Clover,CLOVER
518,VIC1,CLOVER2,hydro,14.5,retired,1998-12-07T05:40:00+10:00,-36.785150242910596,147.21951686434602,Clover,CLOVER
519,VIC1,CLOVER1,hydro,14.5,retired,1998-12-07T05:40:00+10:00,-36.785150242910596,147.21951686434602,Clover,CLOVER
520,VIC1,CODRNGTON,wind,18.0,operating,,-38.2828746908265,141.95496017677,Codrington,CODRGTON
521,VIC1,COHUNSF1,solar_utility,31.1,committed,2020-12-01T00:25:00+10:00,-35.88031662559882,144.2215308548852,Cohuna,COHUNSF1
522,VIC1,CBWF1,wind,19.8,operating,,-36.472722,143.322039,Coonoer Bridge,CBWF
523,VIC1,CORIO1,bioenergy_biogas,1.0,operating,,-38.059048,144.404905,Corio,CORIO
524,VIC1,CROWLWF1,wind,79.0,operating,2018-11-05T23:25:00+10:00,-36.97615,143.097998,Crowlands,CROWLWF
525,VIC1,DARTM1,hydro,150.0,operating,1998-12-07T06:25:00+10:00,-36.5552897653927,147.519872277055,Dartmouth,DARTM
526,VIC1,DIAPURWF1,wind,8.0,operating,,-36.33995255346413,141.44736064716525,Diapur 2,DIAPURWF
527,VIC1,DUNDWF1,wind,168.0,operating,2020-03-01T00:25:00+10:00,-37.8638943,142.94345380000001,Dundonnell,DUNDWF
528,VIC1,DUNDWF2,wind,46.0,operating,2020-03-01T00:25:00+10:00,-37.8638943,142.94345380000001,Dundonnell,DUNDWF
529,VIC1,DUNDWF3,wind,121.0,operating,2020-03-01T00:25:00+10:00,-37.8638943,142.94345380000001,Dundonnell,DUNDWF
530,VIC1,EILDON1,hydro,60.0,operating,1998-12-07T05:40:00+10:00,-37.2212623147345,145.92096602966998,Eildon,EILDON
531,VIC1,EILDON2,hydro,60.0,operating,1998-12-07T05:40:00+10:00,-37.2212623147345,145.92096602966998,Eildon,EILDON
532,VIC1,EILDON3,hydro,5.0,operating,,-37.221773999999996,145.922582,Eildon,EILDONPD
533,VIC1,ELAINWF1,wind,83.0,operating,2020-04-01T00:25:00+10:00,,,Elaine,ELAINEWF
534,VIC1,MOR1,coal_brown,90.0,retired,1998-12-07T01:50:00+10:00,-38.254444,146.413611,Energy Brix,ENERGYB
535,VIC1,MOR2,coal_brown,30.0,retired,1998-12-07T01:50:00+10:00,-38.254444,146.413611,Energy Brix,ENERGYB
536,VIC1,MOR3,coal_brown,75.0,retired,1998-12-07T01:50:00+10:00,-38.254444,146.413611,Energy Brix,ENERGYB
537,VIC1,GANNBL1,battery_charging,30.0,operating,2018-11-06T23:25:00+10:00,-35.735056,143.77946200000002,Gannawarra,GANNBESS
538,VIC1,GANNBG1,battery_discharging,30.0,operating,2018-11-06T23:25:00+10:00,-35.735056,143.77946200000002,Gannawarra,GANNBESS
539,VIC1,GANNSF1,solar_utility,25.0,operating,2018-03-21T00:25:00+10:00,-35.73,143.7711,Gannawarra,GANNSF
540,VIC1,GLENMAG1,hydro,4.0,operating,,-37.904835999999996,146.800388,Glenmaggie,GLENMAGG
541,VIC1,GLENSF1,solar_utility,126.0,operating,,-36.475196180192505,146.17987817461224,Glenrowan,GLENSF
542,VIC1,GLRWNSF1,solar_utility,132.0,operating,2020-12-01T00:25:00+10:00,-36.48808269701029,146.1468872484953,Glenrowan West,GLRWNSF
543,VIC1,HLMSEW01,hydro,1.0,operating,,-38.143332,145.11996399999998,Hallam,HLMSEW01
544,VIC1,HALAMRD1,bioenergy_biogas,9.0,operating,,-38.052181,145.267798,Hallam Road,HALAMRD
545,VIC1,HWPS1,coal_brown,220.0,retired,1998-12-07T01:50:00+10:00,-38.2705750514914,146.389794163907,Hazelwood,HAZEL
546,VIC1,HWPS2,coal_brown,220.0,retired,1998-12-07T01:50:00+10:00,-38.2705750514914,146.389794163907,Hazelwood,HAZEL
547,VIC1,HWPS4,coal_brown,200.0,retired,1998-12-07T01:50:00+10:00,-38.2705750514914,146.389794163907,Hazelwood,HAZEL
548,VIC1,HWPS5,coal_brown,200.0,retired,1998-12-07T01:50:00+10:00,-38.2705750514914,146.389794163907,Hazelwood,HAZEL
549,VIC1,HWPS6,coal_brown,200.0,retired,1998-12-07T01:50:00+10:00,-38.2705750514914,146.389794163907,Hazelwood,HAZEL
550,VIC1,HWPS7,coal_brown,200.0,retired,1998-12-07T01:50:00+10:00,-38.2705750514914,146.389794163907,Hazelwood,HAZEL
551,VIC1,HWPS8,coal_brown,200.0,retired,1998-12-07T01:50:00+10:00,-38.2705750514914,146.389794163907,Hazelwood,HAZEL
552,VIC1,HWPS3,coal_brown,200.0,retired,1998-12-07T11:55:00+10:00,-38.2705750514914,146.389794163907,Hazelwood,HAZEL
553,VIC1,HBESSG1,battery_discharging,200.0,operating,,-38.26921582767311,146.3947238107822,Hazelwood BESS,HBESS
554,VIC1,HBESSL1,battery_charging,200.0,operating,,-38.26921582767311,146.3947238107822,Hazelwood BESS,HBESS
555,VIC1,HEPWIND1,wind,4.0,operating,,-37.424555,144.115711,Hepburn,HEPWIND
556,VIC1,HUMEV,hydro,29.0,operating,1998-12-07T11:55:00+10:00,-36.106887,147.032572,Hume,HUMEV
557,VIC1,JLA03,gas_ocgt,51.0,operating,1998-12-07T19:25:00+10:00,-38.2751112170371,146.427046429655,Jeeralang A,JEERA
558,VIC1,JLA01,gas_ocgt,51.0,operating,1998-12-07T17:25:00+10:00,-38.2751112170371,146.427046429655,Jeeralang A,JEERA
559,VIC1,JLA04,gas_ocgt,51.0,operating,1998-12-07T17:25:00+10:00,-38.2751112170371,146.427046429655,Jeeralang A,JEERA
560,VIC1,JLA02,gas_ocgt,51.0,operating,1998-12-07T17:25:00+10:00,-38.2751112170371,146.427046429655,Jeeralang A,JEERA
561,VIC1,JLB01,gas_ocgt,76.0,operating,1998-12-07T17:55:00+10:00,-38.2738445583474,146.424826524902,Jeeralang B,JEERB
562,VIC1,JLB03,gas_ocgt,76.0,operating,1998-12-11T09:30:00+10:00,-38.2738445583474,146.424826524902,Jeeralang B,JEERB
563,VIC1,JLB02,gas_ocgt,76.0,operating,1998-12-07T19:25:00+10:00,-38.2738445583474,146.424826524902,Jeeralang B,JEERB
564,VIC1,KARSF1,solar_utility,104.0,operating,2018-10-01T00:25:00+10:00,-34.227903999999995,142.28033,Karadoc,KARSF
565,VIC1,KIAMSF1,solar_utility,239.0,operating,2020-08-01T00:25:00+10:00,-35.01813312719621,142.30295254616004,Kiamal,KIAMSF1
566,VIC1,KIATAWF1,wind,31.0,operating,2017-11-02T23:55:00+10:00,-36.397693,141.746827,Kiata,KIATAWF
567,VIC1,LNGS1,gas_ocgt,156.0,operating,2015-06-01T00:25:00+10:00,-37.841693295236794,144.788006154048,Laverton North,LNGS
568,VIC1,LAVNORTH,gas_ocgt,,retired,2006-10-28T13:00:00+10:00,-37.841693295236794,144.788006154048,Laverton North,LNGS
569,VIC1,LNGS2,gas_ocgt,156.0,operating,2015-06-01T00:25:00+10:00,-37.841693295236794,144.788006154048,Laverton North,LNGS
570,VIC1,LONGFORD,gas_ocgt,44.0,operating,,-38.223244,147.1631,Longford,LONGFORD
571,VIC1,LYA3,coal_brown,560.0,operating,1998-12-07T01:50:00+10:00,-38.2506223018629,146.57636128850402,Loy Yang A,LOYYANGA
572,VIC1,LYA2,coal_brown,530.0,operating,1998-12-07T01:50:00+10:00,-38.2506223018629,146.57636128850402,Loy Yang A,LOYYANGA
573,VIC1,LYA4,coal_brown,560.0,operating,1998-12-07T09:30:00+10:00,-38.2506223018629,146.57636128850402,Loy Yang A,LOYYANGA
574,VIC1,LYA1,coal_brown,560.0,operating,1998-12-07T01:50:00+10:00,-38.2506223018629,146.57636128850402,Loy Yang A,LOYYANGA
575,VIC1,LOYYB2,coal_brown,500.0,operating,1998-12-07T01:50:00+10:00,-38.2536191822701,146.585593179624,Loy Yang B,LOYYB
576,VIC1,LOYYB1,coal_brown,500.0,operating,1998-12-07T01:50:00+10:00,-38.2536191822701,146.585593179624,Loy Yang B,LOYYB
577,VIC1,MACARTH1,wind,420.0,operating,2012-08-20T23:55:00+10:00,-38.043482838344104,142.179080598594,Macarthur,MACARTH
578,VIC1,MAROOWF1,wind,6.0,operating,,-37.41875,142.82433999999998,Maroona,MAROOWF1
579,VIC1,MOORAWF1,wind,150.0,operating,2020-11-01T00:25:00+10:00,-37.739432726598274,144.1719854658804,Moorabool,MOORAWF1
580,VIC1,MORNW,bioenergy_biogas,1.0,retired,,-38.392053999999995,144.85479099999998,Mornington Disposal,MORNW
581,VIC1,MORTLK11,gas_ocgt,283.0,operating,2011-07-31T23:25:00+10:00,-38.0626278266324,142.666330491351,Mortlake,MORTLK
582,VIC1,MORTLK12,gas_ocgt,283.0,operating,2011-07-31T23:25:00+10:00,-38.0626278266324,142.666330491351,Mortlake,MORTLK
583,VIC1,MRTLSWF1,wind,153.0,operating,,-38.1479652,142.8822464,Mortlake South,MRTLSWF
584,VIC1,MLWF1,wind,20.0,operating,2012-11-09T14:55:00+10:00,-37.8331864361526,142.465288088147,Mortons Lane,MLWF
585,VIC1,MTGELWF1,wind,137.98,operating,2018-05-31T22:55:00+10:00,-38.257657,143.798651,Mt Gellibrand,MTGELWF
586,VIC1,MERCER01,wind,131.0,operating,2013-10-14T23:55:00+10:00,-37.8475926188678,143.87018302016799,Mt Mercer,MTMERCER
587,VIC1,MUWAWF2,wind,210.0,committed,,-36.438821000000004,142.246003,Murra Warra,MUWAWF
588,VIC1,MUWAWF1,wind,231.0,operating,2019-03-01T00:25:00+10:00,-36.438821000000004,142.246003,Murra Warra,MUWAWF
589,VIC1,MURRAY,hydro,1500.0,operating,2001-06-22T21:25:00+10:00,-36.24599188507089,148.188551670122,Murray,MURRAY
590,VIC1,NPS,gas_steam,500.0,operating,1998-12-07T10:15:00+10:00,-37.8413742466,144.89547862132,Newport,NEWPORT
591,VIC1,NUMURSF1,solar_utility,74.0,operating,2019-05-01T00:25:00+10:00,-36.159275,145.47389099999998,Numurkah,NUMURKSF
592,VIC1,OAKLAND1,wind,67.0,operating,2011-08-04T23:55:00+10:00,-37.6794809945517,142.55299488616998,Oaklands Hill,OAKLAND
593,VIC1,PIBESSL1,battery_charging,7.0,operating,,-38.48329290832882,145.22487976314574,Phillip Island BESS,PIBESS
594,VIC1,PIBESSG1,battery_discharging,7.0,operating,,-38.48329290832882,145.22487976314574,Phillip Island BESS,PIBESS
595,VIC1,PORTWF,wind,148.0,operating,2010-10-31T23:25:00+10:00,-38.3614171461369,141.38455974743601,Portland,PORTWF
596,VIC1,RUBICON,hydro,13.0,operating,2010-10-31T23:25:00+10:00,-37.29245321854629,145.818202438307,Rubicon,RUBICON
597,VIC1,SALTCRK1,wind,54.0,operating,2018-05-28T23:25:00+10:00,-37.918698,142.796027,Salt Creek,SALTCRK
598,VIC1,SHEP1,bioenergy_biogas,1.0,operating,,-36.322223,145.379291,Shepparton,SHEP1
599,VIC1,AGLSOM,gas_ocgt,170.0,operating,2002-01-10T19:55:00+10:00,-37.6309486600574,144.95309828615,Somerton,AGLSOM
600,VIC1,SVALE1,bioenergy_biogas,5.0,operating,,-37.973375,145.139695,Springvale,SVALE
601,VIC1,STOCKYD1,wind,456.96,operating,2021-07-08T00:05:00+10:00,-37.53567986175766,143.25254771422928,Stockyard Hill,STOCKYD
602,VIC1,TATURA01,bioenergy_biogas,1.0,operating,,-36.47915,145.235037,Tatura,TATURA
603,VIC1,TIMWEST,wind,7.0,operating,,-38.528351,142.916231,Timboon West,TIMWEST
604,VIC1,TOORAWF,wind,21.0,operating,,-38.653527957636,146.339773925194,Toora,TOORAWF
605,VIC1,TGNSS1,gas_recip,10.0,operating,,-37.833513,144.965955,Traralgon Network Support,TGNSS
606,VIC1,VPGS3,gas_ocgt,50.0,operating,2002-05-15T09:55:00+10:00,-38.2526008522186,146.58890593343202,Valley Aking,VPGS
607,VIC1,VPGS2,gas_ocgt,50.0,operating,2002-05-15T09:55:00+10:00,-38.2526008522186,146.58890593343202,Valley Aking,VPGS
608,VIC1,VPGS4,gas_ocgt,50.0,operating,2002-05-15T09:55:00+10:00,-38.2526008522186,146.58890593343202,Valley Aking,VPGS
609,VIC1,VPGS5,gas_ocgt,50.0,operating,2002-05-15T09:55:00+10:00,-38.2526008522186,146.58890593343202,Valley Aking,VPGS
610,VIC1,VPGS1,gas_ocgt,50.0,operating,2002-05-15T09:55:00+10:00,-38.2526008522186,146.58890593343202,Valley Aking,VPGS
611,VIC1,VPGS6,gas_ocgt,50.0,operating,2002-05-15T09:55:00+10:00,-38.2526008522186,146.58890593343202,Valley Aking,VPGS
612,VIC1,LYGS2,gas_ocgt,,retired,2002-03-13T18:45:00+10:00,-38.25349870053113,146.5889456613659,Valley Power,LYGS
613,VIC1,LYGS3,gas_ocgt,,retired,2002-03-11T15:00:00+10:00,-38.25349870053113,146.5889456613659,Valley Power,LYGS
614,VIC1,LYGS4,gas_ocgt,,retired,2002-04-09T12:35:00+10:00,-38.25349870053113,146.5889456613659,Valley Power,LYGS
615,VIC1,LYGS5,gas_ocgt,,retired,2002-05-07T11:35:00+10:00,-38.25349870053113,146.5889456613659,Valley Power,LYGS
616,VIC1,LYGS1,gas_ocgt,,retired,2002-02-18T16:10:00+10:00,-38.25349870053113,146.5889456613659,Valley Power,LYGS
617,VIC1,LYGS6,gas_ocgt,,retired,,-38.25349870053113,146.5889456613659,Valley Power,LYGS
618,VIC1,VPGS,gas_ocgt,,retired,2006-02-02T11:05:00+10:00,-38.25349870053113,146.5889456613659,Valley Power,LYGS
619,VIC1,VBBG1,battery_discharging,360.0,operating,2021-07-28T12:40:00+10:00,-38.03827950146317,144.2910031846593,Victoria Big Battery,VBB
620,VIC1,VBBL1,battery_charging,360.0,operating,2021-07-28T11:35:00+10:00,-38.03827950146317,144.2910031846593,Victoria Big Battery,VBB
621,VIC1,WAUBRAWF,wind,192.0,operating,2010-10-31T23:25:00+10:00,-37.3579790620375,143.592600206467,Waubra,WAUBRAWF
622,VIC1,WEMENSF1,solar_utility,97.0,operating,2018-11-01T00:25:00+10:00,-34.80259,142.543348,Wemen,WEMENSF1
623,VIC1,WKIEWA2,hydro,31.0,operating,1998-12-07T05:35:00+10:00,-36.759673693368605,147.18608214576798,West Kiewa,WKIEWA
624,VIC1,WKIEWA1,hydro,31.0,operating,1998-12-07T05:35:00+10:00,-36.759673693368605,147.18608214576798,West Kiewa,WKIEWA
625,VIC1,WINTSF1,solar_utility,85.0,operating,2021-03-01T00:25:00+10:00,-36.49969510417262,146.11455416505774,Winton,WINTSF1
626,VIC1,WOLLERT1,bioenergy_biogas,7.0,operating,,-37.591792,145.043033,Wollert,WOLLERT
627,VIC1,WONWP,wind,12.0,operating,,-38.605129999999996,145.546292,Wonthaggi,WONWP
628,VIC1,WYNDW,bioenergy_biogas,1.0,retired,,-37.935371999999994,144.5898,Wyndham,WYNDW
629,VIC1,YWPS1,coal_brown,360.0,operating,1998-12-07T01:50:00+10:00,-38.177596216851605,146.347508446364,Yallourn W,YALLOURN
630,VIC1,YWPS2,coal_brown,360.0,operating,1998-12-07T01:50:00+10:00,-38.177596216851605,146.347508446364,Yallourn W,YALLOURN
631,VIC1,YWPS3,coal_brown,380.0,operating,1998-12-07T01:50:00+10:00,-38.177596216851605,146.347508446364,Yallourn W,YALLOURN
632,VIC1,YWPS4,coal_brown,380.0,operating,1998-12-07T01:50:00+10:00,-38.177596216851605,146.347508446364,Yallourn W,YALLOURN
633,VIC1,YSWF1,wind,28.0,operating,2017-11-21T23:55:00+10:00,-37.716474,144.241947,Yaloak South,YSWF
634,VIC1,YAMBUKWF,wind,30.0,operating,2010-10-31T23:25:00+10:00,-38.305278107624,142.018439165612,Yambuk,YAMBUK
635,VIC1,YWNGAHYD,hydro,9.0,operating,,-36.009465999999996,145.99956799999998,Yarrawonga,YWNGAHYD
636,VIC1,YATSF1,solar_utility,94.0,operating,2020-11-01T00:25:00+10:00,-34.38072973033968,142.2053402489219,Yatpool,YATSF1
637,VIC1,YAWWF1,wind,7.2,operating,,-36.471022,143.361722,Yawong,YAWWF
638,VIC1,YENDWF1,wind,144.0,operating,2019-06-01T00:25:00+10:00,-37.630952,144.022463,Yendon,YENDONWF
